hotel_id,hotel_name,addressline1,city,state,longitude,latitude,url,numberrooms,yearopened,yearrenovated,number_of_reviews,rating_average,star_rating,apartment/flat,boat/cruise,capsule hotel,chalet,country house,entire bungalow,entire house,farm stay,guesthouse/bed and breakfast,holiday park/caravan park,homestay,hostel,hotel,inn,lodge,love hotel,motel,resort,resort villa,serviced apartment,tent,villa,url_edited
163,Ramana Saigon Hotel,"323 Le Van Sy Street, District 3  ",Ho Chi Minh City,,106.678101,10.787597,https://www.agoda.com/partners/partnersearch.aspx?hid=163,296.0,1996.0,2015.0,2038,8.1,4.0,0,0,0,0,0,0,0,0,0,0,0,0,1,0,0,0,0,0,0,0,0,0,https://www.agoda.com/vi-vn/ramana-saigon-hotel/hotel/ho-chi-minh-city-vn.html
902,Lotte Hotel Saigon,"2A-4A Ton Duc Thang Street, District 1",Ho Chi Minh City,Ho Chi Minh,106.706797,10.778689,https://www.agoda.com/partners/partnersearch.aspx?hid=902,283.0,2001.0,2014.0,6997,9.0,5.0,0,0,0,0,0,0,0,0,0,0,0,0,1,0,0,0,0,0,0,0,0,0,https://www.agoda.com/vi-vn/lotte-legend-hotel-saigon/hotel/ho-chi-minh-city-vn.html
3274,PARKROYAL Saigon,"309B-311 Nguyen Van Troi Street, Tan Binh Dist ",Ho Chi Minh City,Ho Chi Minh,106.668122,10.799623,https://www.agoda.com/partners/partnersearch.aspx?hid=3274,182.0,1997.0,2011.0,1004,8.3,4.5,0,0,0,0,0,0,0,0,0,0,0,0,1,0,0,0,0,0,0,0,0,0,https://www.agoda.com/vi-vn/parkroyal-saigon-hotel/hotel/ho-chi-minh-city-vn.html
9195,Renaissance Riverside Hotel Saigon,8-15 Ton Duc Thang Street ,Ho Chi Minh City,Ho Chi Minh,106.706283,10.774478,https://www.agoda.com/partners/partnersearch.aspx?hid=9195,336.0,1999.0,2013.0,719,8.5,5.0,0,0,0,0,0,0,0,0,0,0,0,0,1,0,0,0,0,0,0,0,0,0,https://www.agoda.com/vi-vn/renaissance-riverside-hotel-saigon/hotel/ho-chi-minh-city-vn.html
9698,TTC Hotel Dalat,4 Nguyen Thi Minh Khai Street,Dalat,Lam Dong,108.437042,11.942183,https://www.agoda.com/partners/partnersearch.aspx?hid=9698,78.0,,2016.0,1326,8.2,4.0,0,0,0,0,0,0,0,0,0,0,0,0,1,0,0,0,0,0,0,0,0,0,https://www.agoda.com/vi-vn/ttc-hotel-premium-dalat/hotel/dalat-vn.html
10943,International Hotel,"6 - 8 -10 -12 Hai Ba Trung, Tan An Ward, Ninh Kieu District",Cần Thơ,Can Tho,105.78885,10.034633,https://www.agoda.com/partners/partnersearch.aspx?hid=10943,66.0,2015.0,2022.0,543,7.2,3.5,0,0,0,0,0,0,0,0,0,0,0,0,1,0,0,0,0,0,0,0,0,0,https://www.agoda.com/vi-vn/international-hotel/hotel/can-tho-vn.html
10944,Saigon Can Tho Hotel,"55 Phan Dinh Phung, Can Tho",Cần Thơ,Can Tho,105.786925,10.032614,https://www.agoda.com/partners/partnersearch.aspx?hid=10944,52.0,1996.0,2014.0,693,7.2,3.0,0,0,0,0,0,0,0,0,0,0,0,0,1,0,0,0,0,0,0,0,0,0,https://www.agoda.com/vi-vn/saigon-can-tho-hotel/hotel/can-tho-vn.html
10947,Victoria Chau Doc Hotel,1 Le Loi Street,Chau Doc (An Giang),An Giang,105.12422,10.708119,https://www.agoda.com/partners/partnersearch.aspx?hid=10947,92.0,,,648,8.9,4.5,0,0,0,0,0,0,0,0,0,0,0,0,1,0,0,0,0,0,0,0,0,0,https://www.agoda.com/vi-vn/victoria-chau-doc-hotel/hotel/chau-doc-an-giang-vn.html
10949,Dalat Palace Heritage Hotel,02 Tran Phu Street ,Dalat,Lam Dong,108.440453,11.937287,https://www.agoda.com/partners/partnersearch.aspx?hid=10949,70.0,1922.0,2023.0,1481,8.8,5.0,0,0,0,0,0,0,0,0,0,0,0,0,1,0,0,0,0,0,0,0,0,0,https://www.agoda.com/vi-vn/dalat-palace-heritage-hotel/hotel/dalat-vn.html
10950,Du Parc Hotel Dalat,15 Tran Phu Street ,Dalat,Lam Dong,108.438934,11.936538,https://www.agoda.com/partners/partnersearch.aspx?hid=10950,140.0,1932.0,2023.0,3830,8.1,4.0,0,0,0,0,0,0,0,0,0,0,0,0,1,0,0,0,0,0,0,0,0,0,https://www.agoda.com/vi-vn/du-parc-hotel-dalat/hotel/dalat-vn.html
10951,Bamboo Green Central Hotel,158 Phan Chu Trinh,Da Nang,Da Nang,108.219727,16.063019,https://www.agoda.com/partners/partnersearch.aspx?hid=10951,42.0,1996.0,2014.0,365,7.4,3.5,0,0,0,0,0,0,0,0,0,0,0,0,1,0,0,0,0,0,0,0,0,0,https://www.agoda.com/vi-vn/bamboo-green-central-hotel/hotel/da-nang-vn.html
10955,Avani Hai Phong Harbour View Hotel,12 Tran Phu Street,Haiphong,Hai Phong,106.689359,20.864005,https://www.agoda.com/partners/partnersearch.aspx?hid=10955,122.0,1998.0,,234,8.0,4.0,0,0,0,0,0,0,0,0,0,0,0,0,1,0,0,0,0,0,0,0,0,0,https://www.agoda.com/vi-vn/avani-hai-phong-harbour-view/hotel/haiphong-vn.html
10960,Hanoi Daewoo Hotel,"360 Kim Ma Street, Ba Dinh District",Hanoi,Ha Noi,105.812529,21.030398,https://www.agoda.com/partners/partnersearch.aspx?hid=10960,411.0,1996.0,2021.0,4378,8.5,5.0,0,0,0,0,0,0,0,0,0,0,0,0,1,0,0,0,0,0,0,0,0,0,https://www.agoda.com/vi-vn/hanoi-daewoo-hotel/hotel/hanoi-vn.html
10961,Pullman Hanoi Hotel,40 Cat Linh Street (Entrance 61 Giang Vo street),Hanoi,Ha Noi,105.828728,21.02985,https://www.agoda.com/partners/partnersearch.aspx?hid=10961,240.0,1995.0,2012.0,1483,8.2,4.5,0,0,0,0,0,0,0,0,0,0,0,0,1,0,0,0,0,0,0,0,0,0,https://www.agoda.com/vi-vn/pullman-hanoi-hotel/hotel/hanoi-vn.html
10963,Hotel du Parc Hanoi,"84 Tran Nhan Tong Street, Hai Ba Trung District",Hanoi,Ha Noi,105.842328,21.017454,https://www.agoda.com/partners/partnersearch.aspx?hid=10963,256.0,1998.0,2019.0,2598,8.6,5.0,0,0,0,0,0,0,0,0,0,0,0,0,1,0,0,0,0,0,0,0,0,0,https://www.agoda.com/vi-vn/hotel-du-parc-hanoi/hotel/hanoi-vn.html
10964,Sofitel Legend Metropole Hanoi Hotel,"15 Ngo Quyen Street, Hoan Kiem District",Hanoi,Ha Noi,105.855667,21.025621,https://www.agoda.com/partners/partnersearch.aspx?hid=10964,358.0,1901.0,2023.0,1563,9.3,5.0,0,0,0,0,0,0,0,0,0,0,0,0,1,0,0,0,0,0,0,0,0,0,https://www.agoda.com/vi-vn/sofitel-legend-metropole-hanoi-hotel/hotel/hanoi-vn.html
10965,Melia Hanoi Hotel,"44B Ly Thuong Kiet Street, Hoan Kiem District",Hanoi,Ha Noi,105.848198,21.024511,https://www.agoda.com/partners/partnersearch.aspx?hid=10965,306.0,1999.0,2022.0,2283,8.7,5.0,0,0,0,0,0,0,0,0,0,0,0,0,1,0,0,0,0,0,0,0,0,0,https://www.agoda.com/vi-vn/melia-hanoi-hotel/hotel/hanoi-vn.html
10966,Pan Pacific Hanoi,"1 Thanh Nien Road, Ba Dinh District",Hanoi,Ha Noi,105.839839,21.04981,https://www.agoda.com/partners/partnersearch.aspx?hid=10966,270.0,1998.0,2016.0,1873,8.6,5.0,0,0,0,0,0,0,0,0,0,0,0,0,1,0,0,0,0,0,0,0,0,0,https://www.agoda.com/vi-vn/pan-pacific-hanoi/hotel/hanoi-vn.html
10967,Sunway Hotel,"19 Pham Dinh Ho Street,CLOSE OLD QUARTER, Hai Ba Trung District",Hanoi,Ha Noi,105.857285,21.016378,https://www.agoda.com/partners/partnersearch.aspx?hid=10967,143.0,1998.0,2017.0,672,8.2,4.0,0,0,0,0,0,0,0,0,0,0,0,0,1,0,0,0,0,0,0,0,0,0,https://www.agoda.com/vi-vn/sunway-hotel/hotel/hanoi-vn.html
10969,Bong Sen Hotel Saigon,"117-119-121-123 Dong Khoi Street, District 1",Ho Chi Minh City,Ho Chi Minh,106.703757,10.775238,https://www.agoda.com/partners/partnersearch.aspx?hid=10969,129.0,,2013.0,3825,7.8,3.5,0,0,0,0,0,0,0,0,0,0,0,0,1,0,0,0,0,0,0,0,0,0,https://www.agoda.com/vi-vn/bong-sen-hotel-saigon/hotel/ho-chi-minh-city-vn.html
10971,Caravelle Saigon Hotel,"19-23 Lam Son Square, District 1",Ho Chi Minh City,Ho Chi Minh,106.703651,10.776302,https://www.agoda.com/partners/partnersearch.aspx?hid=10971,335.0,1959.0,2019.0,4136,8.9,5.0,0,0,0,0,0,0,0,0,0,0,0,0,1,0,0,0,0,0,0,0,0,0,https://www.agoda.com/vi-vn/caravelle-saigon-hotel/hotel/ho-chi-minh-city-vn.html
10972,Hotel Continental Saigon,"132-134 Dong Khoi Street, District 1",Ho Chi Minh City,Ho Chi Minh,106.70269,10.776898,https://www.agoda.com/partners/partnersearch.aspx?hid=10972,83.0,1880.0,2011.0,5899,8.4,4.0,0,0,0,0,0,0,0,0,0,0,0,0,1,0,0,0,0,0,0,0,0,0,https://www.agoda.com/vi-vn/hotel-continental-saigon/hotel/ho-chi-minh-city-vn.html
10973,Empress Hotel,"136 Bui Thi Xuan Street, District 1",Ho Chi Minh City,Ho Chi Minh,106.688736,10.771889,https://www.agoda.com/partners/partnersearch.aspx?hid=10973,60.0,1996.0,2014.0,400,7.6,2.5,0,0,0,0,0,0,0,0,0,0,0,0,1,0,0,0,0,0,0,0,0,0,https://www.agoda.com/vi-vn/empress-hotel/hotel/ho-chi-minh-city-vn.html
10974,Hotel Grand Saigon,8 Đồng Khởi,Ho Chi Minh City,Ho Chi Minh,106.705345,10.774223,https://www.agoda.com/partners/partnersearch.aspx?hid=10974,251.0,1930.0,2012.0,4694,8.7,5.0,0,0,0,0,0,0,0,0,0,0,0,0,1,0,0,0,0,0,0,0,0,0,https://www.agoda.com/vi-vn/grand-hotel-saigon/hotel/ho-chi-minh-city-vn.html
10975,Equatorial Ho Chi Minh City,"No. 242 Tran Binh Trong Street, Ward 4, District 5 ",Ho Chi Minh City,Ho Chi Minh,106.679303,10.763441,https://www.agoda.com/partners/partnersearch.aspx?hid=10975,333.0,1996.0,2021.0,1700,8.2,5.0,0,0,0,0,0,0,0,0,0,0,0,0,1,0,0,0,0,0,0,0,0,0,https://www.agoda.com/vi-vn/hotel-equatorial-ho-chi-minh-city/hotel/ho-chi-minh-city-vn.html
10976,Sofitel Saigon Plaza Hotel,"17 Le Duan, District 1",Ho Chi Minh City,Ho Chi Minh,106.702332,10.784155,https://www.agoda.com/partners/partnersearch.aspx?hid=10976,260.0,1999.0,2012.0,1462,8.7,5.0,0,0,0,0,0,0,0,0,0,0,0,0,1,0,0,0,0,0,0,0,0,0,https://www.agoda.com/vi-vn/sofitel-saigon-plaza-hotel/hotel/ho-chi-minh-city-vn.html
10977,Huong Sen Hotel,66 - 68 - 70 Dong Khoi Street,Ho Chi Minh City,Ho Chi Minh,106.704376,10.775096,https://www.agoda.com/partners/partnersearch.aspx?hid=10977,76.0,1993.0,2012.0,2929,8.4,3.0,0,0,0,0,0,0,0,0,0,0,0,0,1,0,0,0,0,0,0,0,0,0,https://www.agoda.com/vi-vn/huong-sen-hotel/hotel/ho-chi-minh-city-vn.html
10978,Royal Hotel Saigon,"133 Nguyen Hue Avenue, District 1",Ho Chi Minh City,Ho Chi Minh,106.703259,10.774414,https://www.agoda.com/partners/partnersearch.aspx?hid=10978,127.0,,2023.0,2760,8.2,4.0,0,0,0,0,0,0,0,0,0,0,0,0,1,0,0,0,0,0,0,0,0,0,https://www.agoda.com/vi-vn/royal-hotel-saigon/hotel/ho-chi-minh-city-vn.html
10979,Hotel Majestic Saigon,"1 Dong Khoi Street, District 1",Ho Chi Minh City,Ho Chi Minh,106.705849,10.773193,https://www.agoda.com/partners/partnersearch.aspx?hid=10979,175.0,1925.0,2013.0,7055,8.7,5.0,0,0,0,0,0,0,0,0,0,0,0,0,1,0,0,0,0,0,0,0,0,0,https://www.agoda.com/vi-vn/hotel-majestic-saigon/hotel/ho-chi-minh-city-vn.html
10981,New World Saigon Hotel,76 Le Lai Street,Ho Chi Minh City,Ho Chi Minh,106.694654,10.771002,https://www.agoda.com/partners/partnersearch.aspx?hid=10981,533.0,1994.0,2020.0,4431,8.6,5.0,0,0,0,0,0,0,0,0,0,0,0,0,1,0,0,0,0,0,0,0,0,0,https://www.agoda.com/vi-vn/new-world-saigon-hotel/hotel/ho-chi-minh-city-vn.html
10983,Eastin Grand Hotel Saigon,"253 Nguyen Van Troi Street, Phu Nhuan District ",Ho Chi Minh City,Ho Chi Minh,106.673288,10.79656,https://www.agoda.com/partners/partnersearch.aspx?hid=10983,268.0,,,4299,8.7,5.0,0,0,0,0,0,0,0,0,0,0,0,0,1,0,0,0,0,0,0,0,0,0,https://www.agoda.com/vi-vn/eastin-grand-hotel-saigon/hotel/ho-chi-minh-city-vn.html
10984,Oscar Saigon Hotel,"68A Nguyen Hue Ave, District 1 ",Ho Chi Minh City,Ho Chi Minh,106.703255,10.774395,https://www.agoda.com/partners/partnersearch.aspx?hid=10984,107.0,1990.0,2019.0,6507,7.9,4.0,0,0,0,0,0,0,0,0,0,0,0,0,1,0,0,0,0,0,0,0,0,0,https://www.agoda.com/vi-vn/oscar-saigon-hotel/hotel/ho-chi-minh-city-vn.html
10985,Palace Hotel Saigon,"56-66 Nguyen Hue Street, District 1",Ho Chi Minh City,Ho Chi Minh,106.703478,10.774324,https://www.agoda.com/partners/partnersearch.aspx?hid=10985,144.0,,2014.0,4942,7.9,4.0,0,0,0,0,0,0,0,0,0,0,0,0,1,0,0,0,0,0,0,0,0,0,https://www.agoda.com/vi-vn/palace-hotel-saigon/hotel/ho-chi-minh-city-vn.html
10987,Liberty Hotel Saigon Parkview,"265 Pham Ngu Lao Street, District 1",Ho Chi Minh City,Ho Chi Minh,106.692291,10.768134,https://www.agoda.com/partners/partnersearch.aspx?hid=10987,89.0,1998.0,2018.0,4592,7.9,3.5,0,0,0,0,0,0,0,0,0,0,0,0,1,0,0,0,0,0,0,0,0,0,https://www.agoda.com/vi-vn/liberty-hotel-saigon-parkview/hotel/ho-chi-minh-city-vn.html
10989,Rex Hotel Saigon,"141 Nguyen Hue Boulevard, District 1",Ho Chi Minh City,Ho Chi Minh,106.701594,10.775428,https://www.agoda.com/partners/partnersearch.aspx?hid=10989,286.0,1927.0,2013.0,5655,8.6,5.0,0,0,0,0,0,0,0,0,0,0,0,0,1,0,0,0,0,0,0,0,0,0,https://www.agoda.com/vi-vn/rex-hotel-saigon/hotel/ho-chi-minh-city-vn.html
10990,Riverside Hotel Saigon,18-19-20 Đ. Tôn Đức Thắng,Ho Chi Minh City,Ho Chi Minh,106.706252,10.773774,https://www.agoda.com/partners/partnersearch.aspx?hid=10990,61.0,1887.0,1993.0,3913,7.8,3.0,0,0,0,0,0,0,0,0,0,0,0,0,1,0,0,0,0,0,0,0,0,0,https://www.agoda.com/vi-vn/oyo-129-riverside-hotel/hotel/ho-chi-minh-city-vn.html
10991,Saigon Prince Hotel,"63 Nguyen Hue Boulevard, District 1",Ho Chi Minh City,Ho Chi Minh,106.704241,10.773001,https://www.agoda.com/partners/partnersearch.aspx?hid=10991,191.0,1996.0,2023.0,5081,8.3,4.5,0,0,0,0,0,0,0,0,0,0,0,0,1,0,0,0,0,0,0,0,0,0,https://www.agoda.com/vi-vn/saigon-prince-hotel/hotel/ho-chi-minh-city-vn.html
10992,Saigon Star Hotel,"204 Nguyen Thi Minh Khai Street, District 3 (opposite to Tao Dan Park) ",Ho Chi Minh City,Ho Chi Minh,106.690498,10.774975,https://www.agoda.com/partners/partnersearch.aspx?hid=10992,50.0,1991.0,2016.0,554,7.5,0.0,0,0,0,0,0,0,0,0,0,0,0,0,1,0,0,0,0,0,0,0,0,0,https://www.agoda.com/vi-vn/saigon-star-hotel/hotel/ho-chi-minh-city-vn.html
10993,Vien Dong Hotel,"275 A Pham Ngu Lao Street,",Ho Chi Minh City,Ho Chi Minh,106.691613,10.767956,https://www.agoda.com/partners/partnersearch.aspx?hid=10993,100.0,1997.0,2015.0,4552,8.3,3.5,0,0,0,0,0,0,0,0,0,0,0,0,1,0,0,0,0,0,0,0,0,0,https://www.agoda.com/vi-vn/vien-dong-hotel/hotel/ho-chi-minh-city-vn.html
10995,Hai Yen Hotel,"568 Cua Dai street, Son Phong",Hoi An,Quang Nam,108.343901,15.880715,https://www.agoda.com/partners/partnersearch.aspx?hid=10995,41.0,1997.0,2016.0,103,7.7,2.0,0,0,0,0,0,0,0,0,0,0,0,0,1,0,0,0,0,0,0,0,0,0,https://www.agoda.com/vi-vn/hai-yen-hotel/hotel/hoi-an-vn.html
10996,Hoi An Beach Resort,01 Cua Dai Road,Hoi An,Quang Nam,108.367332,15.896595,https://www.agoda.com/partners/partnersearch.aspx?hid=10996,121.0,2000.0,2014.0,2282,8.5,4.0,0,0,0,0,0,0,0,0,0,0,0,0,1,0,0,0,0,1,0,0,0,0,https://www.agoda.com/vi-vn/hoi-an-beach-resort/hotel/hoi-an-vn.html
10997,Hoi An Historic Hotel,10 Tran Hung Dao Street,Hoi An,Quang Nam,108.330645,15.880294,https://www.agoda.com/partners/partnersearch.aspx?hid=10997,150.0,1990.0,2014.0,3542,8.7,4.0,0,0,0,0,0,0,0,0,0,0,0,0,1,0,0,0,0,0,0,0,0,0,https://www.agoda.com/vi-vn/hoi-an-historic-hotel/hotel/hoi-an-vn.html
10998,Vinh Hung 2 City Hotel,"121 Ba Trieu Street, Cam Pho Ward",Hoi An,Quang Nam,108.326317,15.880629,https://www.agoda.com/partners/partnersearch.aspx?hid=10998,29.0,2004.0,2015.0,410,8.5,2.0,0,0,0,0,0,0,0,0,0,0,0,0,1,0,0,0,0,0,0,0,0,0,https://www.agoda.com/vi-vn/vinh-hung-2-city-hotel/hotel/hoi-an-vn.html
10999,Century Riverside Hotel Hue,49 Le Loi Street,Hue,Thua Thien Hue,107.593848,16.470469,https://www.agoda.com/partners/partnersearch.aspx?hid=10999,120.0,1995.0,2023.0,2620,7.9,4.0,0,0,0,0,0,0,0,0,0,0,0,0,1,0,0,0,0,0,0,0,0,0,https://www.agoda.com/vi-vn/century-riverside-hue-hotel/hotel/hue-vn.html
11001,Saigon Morin Hotel,30 Le Loi St. ,Hue,Thua Thien Hue,107.590485,16.467067,https://www.agoda.com/partners/partnersearch.aspx?hid=11001,180.0,1901.0,2011.0,1922,8.8,4.5,0,0,0,0,0,0,0,0,0,0,0,0,1,0,0,0,0,0,0,0,0,0,https://www.agoda.com/vi-vn/saigon-morin-hotel/hotel/hue-vn.html
11005,Nha Trang Lodge Hotel,42 Tran Phu Street ,Nha Trang,Khanh Hoa,109.196205,12.241484,https://www.agoda.com/partners/partnersearch.aspx?hid=11005,125.0,1998.0,2022.0,776,8.0,4.0,0,0,0,0,0,0,0,0,0,0,0,0,1,0,1,0,0,0,0,0,0,0,https://www.agoda.com/vi-vn/nha-trang-lodge-hotel/hotel/nha-trang-vn.html
11006,Tran Vien Dong,15 Trần Hưng Đạo,Nha Trang,Khanh Hoa,109.194832,12.242568,https://www.agoda.com/partners/partnersearch.aspx?hid=11006,154.0,2014.0,2021.0,390,7.8,0.0,0,0,0,0,0,0,0,0,0,0,0,0,1,0,0,0,0,0,0,0,0,0,https://www.agoda.com/vi-vn/tran-vien-dong/hotel/nha-trang-vn.html
11007,Yasaka Saigon Resort Hotel & Spa,18 Tran Phu Street,Nha Trang,Khanh Hoa,109.196066,12.249085,https://www.agoda.com/partners/partnersearch.aspx?hid=11007,201.0,1999.0,,1643,7.6,4.0,0,0,0,0,0,0,0,0,0,0,0,0,1,0,0,0,0,0,0,0,0,0,https://www.agoda.com/vi-vn/yasaka-saigon-resort-hotel-spa/hotel/nha-trang-vn.html
11015,Palace Hotel Vung Tau,01 Nguyen Trai street ,Vung Tau,Ba Ria Vung Tau,107.075928,10.342858,https://www.agoda.com/partners/partnersearch.aspx?hid=11015,95.0,1973.0,2014.0,1115,8.1,4.0,0,0,0,0,0,0,0,0,0,0,0,0,1,0,0,0,0,0,0,0,0,0,https://www.agoda.com/vi-vn/palace-hotel/hotel/vung-tau-vn.html
11016,Petro House Vung Tau (Block B),"63 Tran Hung Dao st., Ward 1",Vung Tau,Ba Ria Vung Tau,107.075018,10.349212,https://www.agoda.com/partners/partnersearch.aspx?hid=11016,48.0,,,716,7.7,3.0,0,0,0,0,0,0,0,0,0,0,0,0,1,0,0,0,0,0,0,0,0,0,https://www.agoda.com/vi-vn/petro-house-hotel/hotel/vung-tau-vn.html
11017,Rex Hotel Vung Tau,"1 Le Qui Don St, Ward 1",Vung Tau,Ba Ria Vung Tau,107.07225,10.348209,https://www.agoda.com/partners/partnersearch.aspx?hid=11017,77.0,1998.0,2010.0,1614,7.9,3.0,0,0,0,0,0,0,0,0,0,0,0,0,1,0,0,0,0,0,0,0,0,0,https://www.agoda.com/vi-vn/rex-hotel-vung-tau/hotel/vung-tau-vn.html
12132,Sheraton Saigon Grand Opera Hotel,88 Dong Khoi ,Ho Chi Minh City,Ho Chi Minh,106.704071,10.775743,https://www.agoda.com/partners/partnersearch.aspx?hid=12132,485.0,2003.0,2019.0,864,8.9,5.0,0,0,0,0,0,0,0,0,0,0,0,0,1,0,0,0,0,0,0,0,0,0,https://www.agoda.com/vi-vn/sheraton-saigon-hotel-towers_12/hotel/ho-chi-minh-city-vn.html
43382,Seagull Hotel,489 An Duong Vuong street,Quy Nhon (Binh Dinh),Binh Dinh,109.219118,13.756481,https://www.agoda.com/partners/partnersearch.aspx?hid=43382,170.0,2008.0,2011.0,863,8.4,4.0,0,0,0,0,0,0,0,0,0,0,0,0,1,0,0,0,0,0,0,0,0,0,https://www.agoda.com/vi-vn/seagull-hotel/hotel/quy-nhon-binh-dinh-vn.html
43384,TTC Hotel Can Tho,"2 Hai Ba Trung St., Tan An Ward, Ninh Kieu Dist.",Cần Thơ,Can Tho,105.789467,10.035425,https://www.agoda.com/partners/partnersearch.aspx?hid=43384,107.0,2002.0,2015.0,2069,8.7,5.0,0,0,0,0,0,0,0,0,0,0,0,0,1,0,0,0,0,0,0,0,0,0,https://www.agoda.com/vi-vn/ttc-hotel-can-tho-premium/hotel/can-tho-vn.html
43387,Bamboo Green Riverside Hotel,68 Bach Dang Street,Da Nang,Da Nang,108.224854,16.068738,https://www.agoda.com/partners/partnersearch.aspx?hid=43387,30.0,,,203,6.7,2.0,0,0,0,0,0,0,0,0,0,0,0,0,1,0,0,0,0,0,0,0,0,0,https://www.agoda.com/vi-vn/bamboo-green-riverside-hotel/hotel/da-nang-vn.html
43397,Fortuna Hotel Hanoi,"6B, Lang Ha Street, Ba Dinh District , Hanoi, Vietnam. ",Hanoi,Ha Noi,105.818793,21.022665,https://www.agoda.com/partners/partnersearch.aspx?hid=43397,345.0,1999.0,2019.0,3265,7.9,4.5,0,0,0,0,0,0,0,0,0,0,0,0,1,0,0,0,0,0,0,0,0,0,https://www.agoda.com/vi-vn/fortuna-hotel-hanoi/hotel/hanoi-vn.html
43399,Hanoi Hotel,"D8 Giang Vo Street, Ba Dinh District",Hanoi,Ha Noi,105.821667,21.027688,https://www.agoda.com/partners/partnersearch.aspx?hid=43399,218.0,1993.0,,1825,8.3,4.0,0,0,0,0,0,0,0,0,0,0,0,0,1,0,0,0,0,0,0,0,0,0,https://www.agoda.com/vi-vn/hanoi-hotel/hotel/hanoi-vn.html
43401,Hoa Binh Hotel,27 Ly Thuong Kiet Street ,Hanoi,Ha Noi,105.853935,21.02202,https://www.agoda.com/partners/partnersearch.aspx?hid=43401,103.0,1926.0,2016.0,289,7.9,3.0,0,0,0,0,0,0,0,0,0,0,0,0,1,0,0,0,0,0,0,0,0,0,https://www.agoda.com/vi-vn/hoa-binh-hotel/hotel/hanoi-vn.html
43402,ATS Hotel,33B Pham Ngu Lao Street,Hanoi,,105.859459,21.021982,https://www.agoda.com/partners/partnersearch.aspx?hid=43402,53.0,,,21,7.4,3.0,0,0,0,0,0,0,0,0,0,0,0,0,1,0,0,0,0,0,0,0,0,0,https://www.agoda.com/vi-vn/ats-hotel/hotel/hanoi-vn.html
43407,Hong Ngoc Dynastie Boutique hotel & Spa,"30-34 Hang Manh Street, Hoan Kiem District ",Hanoi,Ha Noi,105.848317,21.031655,https://www.agoda.com/partners/partnersearch.aspx?hid=43407,40.0,2006.0,2018.0,279,9.0,4.0,0,0,0,0,0,0,0,0,0,0,0,0,1,0,0,0,0,0,0,0,0,0,https://www.agoda.com/vi-vn/hong-ngoc-dynastie/hotel/hanoi-vn.html
43411,Liberty Saigon Green View Hotel,187 Pham Ngu Lao Street (Front of Taka Plaza_Dist 1),Ho Chi Minh City,Ho Chi Minh,106.69339,10.768606,https://www.agoda.com/partners/partnersearch.aspx?hid=43411,66.0,1997.0,2021.0,2650,8.1,3.0,0,0,0,0,0,0,0,0,0,0,0,0,1,0,0,0,0,0,0,0,0,0,https://www.agoda.com/vi-vn/liberty-saigon-green-view-hotel/hotel/ho-chi-minh-city-vn.html
43413,Duy Tan Hotel,"12 Hung Vuong St., Hue City ",Hue,Thua Thien Hue,107.59259,16.465359,https://www.agoda.com/partners/partnersearch.aspx?hid=43413,135.0,1995.0,2004.0,147,7.8,3.0,0,0,0,0,0,0,0,0,0,0,0,0,1,0,0,0,0,0,0,0,0,0,https://www.agoda.com/vi-vn/duy-tan-hotel/hotel/hue-vn.html
43417,Thuy Anh Hotel,"02 ( OLD 55A ) Truong Han Sieu str, Phuc Thanh Ward",Ninh Bình,Ninh Binh,105.970688,20.257124,https://www.agoda.com/partners/partnersearch.aspx?hid=43417,37.0,,,218,7.8,3.0,0,0,0,0,0,0,0,0,0,0,0,0,1,0,0,0,0,0,0,0,0,0,https://www.agoda.com/vi-vn/thuy-anh-hotel/hotel/ninh-binh-vn.html
43424,Saigon Tourane Hotel,5 Dong Da Street,Da Nang,Da Nang,108.221207,16.082348,https://www.agoda.com/partners/partnersearch.aspx?hid=43424,82.0,,,82,7.3,3.0,0,0,0,0,0,0,0,0,0,0,0,0,1,0,0,0,0,0,0,0,0,0,https://www.agoda.com/vi-vn/saigon-tourane-hotel/hotel/da-nang-vn.html
43425,Huu Nghi Hotel,60 Điện Biên Phủ,Haiphong,Hai Phong,106.684249,20.861776,https://www.agoda.com/partners/partnersearch.aspx?hid=43425,128.0,1990.0,2014.0,253,7.0,4.0,0,0,0,0,0,0,0,0,0,0,0,0,1,0,0,0,0,0,0,0,0,0,https://www.agoda.com/vi-vn/huu-nghi-hotel/hotel/haiphong-vn.html
43427,Saigon Halong Hotel,"Ha Long Road, Bai Chay Ward,",Hạ Long,Quang Ninh,107.038636,20.950919,https://www.agoda.com/partners/partnersearch.aspx?hid=43427,222.0,2002.0,2019.0,724,8.0,4.0,0,0,0,0,0,0,0,0,0,0,0,0,1,0,0,0,0,0,0,0,0,0,https://www.agoda.com/vi-vn/saigon-halong-hotel/hotel/halong-vn.html
43428,Thien Thai Hotel & Spa,"45 Nguyen Truong To, Ba Dinh District ",Hanoi,Ha Noi,105.845825,21.042055,https://www.agoda.com/partners/partnersearch.aspx?hid=43428,80.0,1990.0,2021.0,70,8.5,4.0,0,0,0,0,0,0,0,0,0,0,0,0,1,0,0,0,0,0,0,0,0,0,https://www.agoda.com/vi-vn/babylon-grand-hotel-spa/hotel/hanoi-vn.html
43436,Chau Long Sapa II Hotel,24 Dong Loi Street,Sapa,Lao Cai,103.842119,22.332858,https://www.agoda.com/partners/partnersearch.aspx?hid=43436,67.0,2004.0,,953,8.8,4.0,0,0,0,0,0,0,0,0,0,0,0,0,1,0,0,0,0,0,0,0,0,0,https://www.agoda.com/vi-vn/chau-long-sapa-ii-hotel/hotel/sapa-vn.html
48363,Sunrise Nha Trang Beach Hotel & Spa,12 Tran Phu Street ,Nha Trang,Khanh Hoa,109.195801,12.250667,https://www.agoda.com/partners/partnersearch.aspx?hid=48363,125.0,2004.0,2021.0,3851,9.0,5.0,0,0,0,0,0,0,0,0,0,0,0,0,1,0,0,0,0,0,0,0,0,0,https://www.agoda.com/vi-vn/sunrise-nha-trang-beach-hotel-spa/hotel/nha-trang-vn.html
48364,Sheraton Hanoi Hotel,"K5 Nghi Tam, 11 Xuan Dieu Road",Hanoi,Ha Noi,105.831589,21.059647,https://www.agoda.com/partners/partnersearch.aspx?hid=48364,299.0,2003.0,,520,8.4,5.0,0,0,0,0,0,0,0,0,0,0,0,0,1,0,0,0,0,0,0,0,0,0,https://www.agoda.com/vi-vn/sheraton-hanoi-hotel/hotel/hanoi-vn.html
48367,Anantara Hoi An Resort,1 Pham Hong Thai ,Hoi An,Quang Nam,108.336502,15.877181,https://www.agoda.com/partners/partnersearch.aspx?hid=48367,92.0,2004.0,,588,8.9,5.0,0,0,0,0,0,0,0,0,0,0,0,0,1,0,0,0,0,1,0,0,0,0,https://www.agoda.com/vi-vn/anantara-hoi-an-resort/hotel/hoi-an-vn.html
49251,Windsor Plaza Hotel,"18 An Duong Vuong Street, Ward 9, District 5, Ho Chi Minh City, Vietnam",Ho Chi Minh City,Ho Chi Minh,106.673436,10.75786,https://www.agoda.com/partners/partnersearch.aspx?hid=49251,376.0,2004.0,2016.0,4759,8.5,5.0,0,0,0,0,0,0,0,0,0,0,0,0,1,0,0,0,0,0,0,0,0,0,https://www.agoda.com/vi-vn/windsor-plaza-hotel/hotel/ho-chi-minh-city-vn.html
50099,Dong Khanh Hotel,2 Đường Trần Hưng Đạo B,Ho Chi Minh City,Ho Chi Minh,106.671791,10.753126,https://www.agoda.com/partners/partnersearch.aspx?hid=50099,76.0,1990.0,2019.0,918,7.6,3.0,0,0,0,0,0,0,0,0,0,0,0,0,1,0,0,0,0,0,0,0,0,0,https://www.agoda.com/vi-vn/dong-khanh-hotel/hotel/ho-chi-minh-city-vn.html
50114,First Hotel,"18 Hoang Viet St, Tan Binh District",Ho Chi Minh City,Ho Chi Minh,106.659239,10.795989,https://www.agoda.com/partners/partnersearch.aspx?hid=50114,151.0,1991.0,2011.0,2288,8.0,4.0,0,0,0,0,0,0,0,0,0,0,0,0,1,0,0,0,0,0,0,0,0,0,https://www.agoda.com/vi-vn/first-hotel/hotel/ho-chi-minh-city-vn.html
50115,Halong Pearl Hotel,"162 Ha Long Road, Bai Chay Beach, Halong City, Quang Ninh Province",Hạ Long,Quang Ninh,107.039581,20.950899,https://www.agoda.com/partners/partnersearch.aspx?hid=50115,160.0,2005.0,2018.0,133,7.3,4.0,0,0,0,0,0,0,0,0,0,0,0,0,1,0,0,0,0,0,0,0,0,0,https://www.agoda.com/vi-vn/halong-pearl-hotel/hotel/halong-vn.html
50120,Mithrin Hotel Halong,"Hoang Quoc Viet Road, Bai Chay Ward, Quang Ninh Province",Hạ Long,Quang Ninh,107.019745,20.95624,https://www.agoda.com/partners/partnersearch.aspx?hid=50120,88.0,,,29,8.7,4.0,0,0,0,0,0,0,0,0,0,0,0,0,1,0,0,0,0,0,0,0,0,0,https://www.agoda.com/vi-vn/mithrin-hotel-halong/hotel/halong-vn.html
52043,Asia Hotel,17 Pham Ngu Lao Street ,Hue,Thua Thien Hue,107.594902,16.468998,https://www.agoda.com/partners/partnersearch.aspx?hid=52043,87.0,2004.0,2010.0,453,8.4,4.0,0,0,0,0,0,0,0,0,0,0,0,0,1,0,0,0,0,0,0,0,0,0,https://www.agoda.com/vi-vn/asia-hotel/hotel/hue-vn.html
52045,Bao Son International Hotel,50 Nguyen Chi Thanh,Hanoi,Ha Noi,105.8106,21.024401,https://www.agoda.com/partners/partnersearch.aspx?hid=52045,100.0,1995.0,2019.0,560,8.3,4.0,0,0,0,0,0,0,0,0,0,0,0,0,1,0,0,0,0,0,0,0,0,0,https://www.agoda.com/vi-vn/baoson-international-hotel/hotel/hanoi-vn.html
52048,Golden Sand Resort & Spa,Au Co Road,Hoi An,Quang Nam,108.374481,15.892927,https://www.agoda.com/partners/partnersearch.aspx?hid=52048,212.0,2003.0,2014.0,448,8.0,5.0,0,0,0,0,0,0,0,0,0,0,0,0,1,0,0,0,0,1,0,0,0,0,https://www.agoda.com/vi-vn/golden-sand-resort-spa/hotel/hoi-an-vn.html
52067,Asia Hotel Can Tho,"91 Chau Van Liem St., An Lac Ward, Ninh Kieu Dist.",Cần Thơ,Can Tho,105.784798,10.031013,https://www.agoda.com/partners/partnersearch.aspx?hid=52067,65.0,2005.0,2013.0,418,7.7,0.0,0,0,0,0,0,0,0,0,0,0,0,0,1,0,0,0,0,0,0,0,0,0,https://www.agoda.com/vi-vn/asia-hotel-can-tho/hotel/can-tho-vn.html
52069,Thai Binh 2 Hotel,02 Luong The Vinh,Hue,Thua Thien Hue,107.590744,16.465651,https://www.agoda.com/partners/partnersearch.aspx?hid=52069,40.0,,2010.0,588,7.9,2.0,0,0,0,0,0,0,0,0,0,0,0,0,1,0,0,0,0,0,0,0,0,0,https://www.agoda.com/vi-vn/thai-binh-2-hotel/hotel/hue-vn.html
52070,Thang Loi Hotel Hanoi,"200 Yen Phu Street, Tay Ho District",Hanoi,Ha Noi,105.833252,21.056269,https://www.agoda.com/partners/partnersearch.aspx?hid=52070,175.0,1975.0,2010.0,537,7.1,4.0,0,0,0,0,0,0,0,0,0,0,0,0,1,0,0,0,0,0,0,0,0,0,https://www.agoda.com/vi-vn/thang-loi-hotel/hotel/hanoi-vn.html
52077,Vinh Hung Riverside Resort,"111 Ngo Quyen Street, Minh An , Hoi An",Hoi An,Quang Nam,108.324508,15.874256,https://www.agoda.com/partners/partnersearch.aspx?hid=52077,89.0,2003.0,2016.0,2363,8.7,4.0,0,0,0,0,0,0,0,0,0,0,0,0,1,0,0,0,0,1,0,0,0,0,https://www.agoda.com/vi-vn/vinh-hung-riverside-resort/hotel/hoi-an-vn.html
52082,Liberty 2 Hotel,"129–133 Ham Nghi Street, District 1",Ho Chi Minh City,Ho Chi Minh,106.699928,10.770851,https://www.agoda.com/partners/partnersearch.aspx?hid=52082,31.0,1993.0,2019.0,828,7.7,0.0,0,0,0,0,0,0,0,0,0,0,0,0,1,0,0,0,0,0,0,0,0,0,https://www.agoda.com/vi-vn/liberty-2-hotel/hotel/ho-chi-minh-city-vn.html
52086,Hoi An Pho Library Hotel,96 Ba Trieu Street,Hoi An,Quang Nam,108.325885,15.880609,https://www.agoda.com/partners/partnersearch.aspx?hid=52086,25.0,2001.0,2022.0,1571,8.6,3.0,0,0,0,0,0,0,0,0,0,0,0,0,1,0,0,0,0,0,0,0,0,0,https://www.agoda.com/vi-vn/vinh-hung-library-hotel/hotel/hoi-an-vn.html
64307,Palago Boutique Hotel,10 P. Bát Đàn,Hanoi,Ha Noi,105.847701,21.033852,https://www.agoda.com/partners/partnersearch.aspx?hid=64307,60.0,2023.0,2023.0,449,9.2,4.0,0,0,0,0,0,0,0,0,0,0,0,0,1,0,0,0,0,0,0,0,0,0,https://www.agoda.com/vi-vn/quoc-hoa-premier-hotel-and-spa/hotel/hanoi-vn.html
64309,Hanoi L'Heritage Centre Hotel & Spa,"No 39 Hang Ga Street , Hoan Kiem , Hanoi, Viet Nam",Hanoi,Ha Noi,105.847147,21.035276,https://www.agoda.com/partners/partnersearch.aspx?hid=64309,47.0,2020.0,2022.0,1689,9.1,4.0,0,0,0,0,0,0,0,0,0,0,0,0,1,0,0,0,0,0,0,0,0,0,https://www.agoda.com/vi-vn/hanoi-l-heritage-centre-hotel/hotel/hanoi-vn.html
64310,Lavender Central Hotel Hanoi,39 Hang Bac Street,Hanoi,Ha Noi,105.853699,21.033865,https://www.agoda.com/partners/partnersearch.aspx?hid=64310,25.0,2009.0,2013.0,892,9.1,4.0,0,0,0,0,0,0,0,0,0,0,0,0,1,0,0,0,0,0,0,0,0,0,https://www.agoda.com/vi-vn/oriental-central-hotel/hotel/hanoi-vn.html
65099,De Syloia Hotel,17A Tran Hung Dao ,Hanoi,Ha Noi,105.856522,21.019673,https://www.agoda.com/partners/partnersearch.aspx?hid=65099,33.0,,2022.0,479,9.2,4.0,0,0,0,0,0,0,0,0,0,0,0,0,1,0,0,0,0,0,0,0,0,0,https://www.agoda.com/vi-vn/de-syloia-hotel/hotel/hanoi-vn.html
65107,Palm Garden Beach Resort & Spa,Lac Long Quan Road ,Hoi An,Quang Nam,108.360846,15.899973,https://www.agoda.com/partners/partnersearch.aspx?hid=65107,216.0,2005.0,2017.0,2162,8.9,5.0,0,0,0,0,0,0,0,0,0,0,0,0,1,0,0,0,0,1,0,0,0,0,https://www.agoda.com/vi-vn/palm-garden-beach-resort-spa/hotel/hoi-an-vn.html
65117,Jasmine Hotel,8-10 Chu Van An Street,Hue,Thua Thien Hue,107.594772,16.469999,https://www.agoda.com/partners/partnersearch.aspx?hid=65117,76.0,2003.0,2009.0,180,7.6,3.0,0,0,0,0,0,0,0,0,0,0,0,0,1,0,0,0,0,0,0,0,0,0,https://www.agoda.com/vi-vn/jasmine-hotel/hotel/hue-vn.html
65491,Somerset Chancellor Court Serviced Residence,"21-23 Nguyen Thi Minh Khai Street, District 1",Ho Chi Minh City,Ho Chi Minh,106.699608,10.784176,https://www.agoda.com/partners/partnersearch.aspx?hid=65491,172.0,1993.0,2007.0,2123,8.5,5.0,0,0,0,0,0,0,0,0,0,0,0,0,1,0,0,0,0,0,0,1,0,0,https://www.agoda.com/vi-vn/somerset-chancellor-court-serviced-residence/hotel/ho-chi-minh-city-vn.html
65492,Somerset Ho Chi Minh City Serviced Residence,"8A, Nguyen Binh Khiem Street, District 1",Ho Chi Minh City,Ho Chi Minh,106.702988,10.789603,https://www.agoda.com/partners/partnersearch.aspx?hid=65492,198.0,1997.0,2017.0,3673,8.7,5.0,0,0,0,0,0,0,0,0,0,0,0,0,1,0,0,0,0,0,0,1,0,0,https://www.agoda.com/vi-vn/somerset-ho-chi-minh-city-serviced-residence/hotel/ho-chi-minh-city-vn.html
65493,Somerset Grand Hanoi Serviced Residences,"No 49, Hai Ba Trung Street, Hoan Kiem District ",Hanoi,Ha Noi,105.846291,21.025728,https://www.agoda.com/partners/partnersearch.aspx?hid=65493,185.0,1997.0,2010.0,4304,8.9,5.0,0,0,0,0,0,0,0,0,0,0,0,0,1,0,0,0,0,0,0,1,0,0,https://www.agoda.com/vi-vn/somerset-grand-hanoi-serviced-residences/hotel/hanoi-vn.html
66722,Halong Plaza Hotel,"8 Halong Road, Baichay ",Hạ Long,Quang Ninh,107.06266,20.960619,https://www.agoda.com/partners/partnersearch.aspx?hid=66722,200.0,1997.0,2016.0,903,8.4,4.0,0,0,0,0,0,0,0,0,0,0,0,0,1,0,0,0,0,0,0,0,0,0,https://www.agoda.com/vi-vn/halong-plaza-hotel-managed-by-h-k-hospitality/hotel/halong-vn.html
70177,Park Hyatt Saigon,"2 Lam Son Square, District 1",Ho Chi Minh City,Ho Chi Minh,106.703514,10.777704,https://www.agoda.com/partners/partnersearch.aspx?hid=70177,,2005.0,2019.0,401,9.1,5.0,0,0,0,0,0,0,0,0,0,0,0,0,1,0,0,0,0,0,0,0,0,0,https://www.agoda.com/vi-vn/park-hyatt-saigon-hotel/hotel/ho-chi-minh-city-vn.html
70335,Lake Side Hotel,"23 Ngoc Khanh,Giang Vo ward, Ba Dinh District, HN",Hanoi,Ha Noi,105.817627,21.027889,https://www.agoda.com/partners/partnersearch.aspx?hid=70335,78.0,1995.0,2017.0,651,7.7,0.0,0,0,0,0,0,0,0,0,0,0,0,0,1,0,0,0,0,0,0,0,0,0,https://www.agoda.com/vi-vn/lake-side-hotel/hotel/hanoi-vn.html
70425,La Veranda Resort Phu Quoc - MGallery,"TRAN HUNG DAO STREET, DUONG DONG BEACH ",Phu Quoc Island,Kien Giang,103.964218,10.193092,https://www.agoda.com/partners/partnersearch.aspx?hid=70425,70.0,2006.0,2018.0,445,9.0,4.5,0,0,0,0,0,0,0,0,0,0,0,0,1,0,0,0,0,1,0,0,0,0,https://www.agoda.com/vi-vn/la-veranda-resort-phu-quoc/hotel/phu-quoc-island-vn.html
70624,TTC Imperial Hotel,8 Hung Vuong Street ,Hue,Thua Thien Hue,107.591888,16.46611,https://www.agoda.com/partners/partnersearch.aspx?hid=70624,192.0,2006.0,2014.0,2174,9.0,5.0,0,0,0,0,0,0,0,0,0,0,0,0,1,0,0,0,0,0,0,0,0,0,https://www.agoda.com/vi-vn/imperial-hotel-hue/hotel/hue-vn.html
73270,Bamboo Sapa Hotel,18 Mường Hoa,Sapa,Lao Cai,103.843672,22.332407,https://www.agoda.com/partners/partnersearch.aspx?hid=73270,106.0,2002.0,2014.0,489,8.4,4.0,0,0,0,0,0,0,0,0,0,0,0,0,1,0,0,0,0,0,0,0,0,0,https://www.agoda.com/vi-vn/bamboo-sapa-hotel/hotel/sapa-vn.html
73275,Minh Toan Athena Hotel,162 - 2/9 Street,Da Nang,Da Nang,108.222061,16.05018,https://www.agoda.com/partners/partnersearch.aspx?hid=73275,63.0,2006.0,2013.0,130,7.4,3.0,0,0,0,0,0,0,0,0,0,0,0,0,1,0,0,0,0,0,0,0,0,0,https://www.agoda.com/vi-vn/minh-toan-hotel/hotel/da-nang-vn.html
73282,Mường Thanh Grand Dien Bien Phu Hotel,"No 514, Vo Nguyen Giap Str, Him Lam, Dien Bien Phu, Dien Bien",Dien Bien Phu,Dien Bien,103.022102,21.40077,https://www.agoda.com/partners/partnersearch.aspx?hid=73282,132.0,2010.0,2012.0,452,8.2,4.0,0,0,0,0,0,0,0,0,0,0,0,0,1,0,0,0,0,0,0,0,0,0,https://www.agoda.com/vi-vn/muong-thanh-dien-bien-phu-hotel/hotel/dien-bien-phu-vn.html
73303,Bat Dat Hotel,"238-244 Tran Hung Dao B Street, District 5",Ho Chi Minh City,Ho Chi Minh,106.66465,10.752039,https://www.agoda.com/partners/partnersearch.aspx?hid=73303,77.0,1972.0,1995.0,261,7.2,3.0,0,0,0,0,0,0,0,0,0,0,0,0,1,0,0,0,0,0,0,0,0,0,https://www.agoda.com/vi-vn/bat-dat-hotel/hotel/ho-chi-minh-city-vn.html
73308,Tea Resort Dalat,"3 Nguyen Du Street, Da Lat City, Lam Dong Province",Dalat,Lam Dong,108.459856,11.945136,https://www.agoda.com/partners/partnersearch.aspx?hid=73308,122.0,2005.0,,308,8.0,4.0,0,0,0,0,0,0,0,0,0,0,0,0,1,0,0,0,0,1,0,0,0,0,https://www.agoda.com/vi-vn/monet-garden-resort/hotel/dalat-vn.html
73310,Saigon Quy Nhon Hotel,"24 Nguyen Hue St, Qui Nhon City",Quy Nhon (Binh Dinh),Binh Dinh,109.234453,13.770482,https://www.agoda.com/partners/partnersearch.aspx?hid=73310,148.0,,,365,8.3,4.0,0,0,0,0,0,0,0,0,0,0,0,0,1,0,0,0,0,0,0,0,0,0,https://www.agoda.com/vi-vn/saigon-quy-nhon-hotel/hotel/quy-nhon-binh-dinh-vn.html
73600,Dai Nam Hotel,79 Tran Hung Dao,Ho Chi Minh City,Ho Chi Minh,106.696991,10.769552,https://www.agoda.com/partners/partnersearch.aspx?hid=73600,50.0,2005.0,2009.0,669,6.8,3.0,0,0,0,0,0,0,0,0,0,0,0,0,1,0,0,0,0,0,0,0,0,0,https://www.agoda.com/vi-vn/dai-nam-hotel/hotel/ho-chi-minh-city-vn.html
74040,Orchid Hotel Hue,30A Chu Văn An,Hue,Thua Thien Hue,107.595429,16.469731,https://www.agoda.com/partners/partnersearch.aspx?hid=74040,18.0,2006.0,2024.0,1671,9.1,3.0,0,0,0,0,0,0,0,0,0,0,0,0,1,0,0,0,0,0,0,0,0,0,https://www.agoda.com/vi-vn/orchid-hotel-hue/hotel/hue-vn.html
75222,Asia Paradise Hotel Nha Trang,06 Biet Thu Street,Nha Trang,Khanh Hoa,109.195648,12.235885,https://www.agoda.com/partners/partnersearch.aspx?hid=75222,114.0,2006.0,2021.0,1760,7.9,3.5,0,0,0,0,0,0,0,0,0,0,0,0,1,0,0,0,0,0,0,0,0,0,https://www.agoda.com/vi-vn/asia-paradise-hotel-nha-trang/hotel/nha-trang-vn.html
75224,Saigon Kim Lien Hotel - Vinh City,"No.25, Quang Trung Street, Vinh City, Nghe An Province",Vinh,Nghe An,105.67381,18.671458,https://www.agoda.com/partners/partnersearch.aspx?hid=75224,80.0,1990.0,2010.0,305,8.2,4.0,0,0,0,0,0,0,0,0,0,0,0,0,1,0,0,0,0,0,0,0,0,0,https://www.agoda.com/vi-vn/saigon-kim-lien-hotel-vinh-city/hotel/vinh-vn.html
75225,Saigon Kim Lien Resort - Cua Lo Beach,212 Binh Minh Street,Cua Lo Beach,Nghe An,105.722971,18.808779,https://www.agoda.com/partners/partnersearch.aspx?hid=75225,101.0,1979.0,2007.0,160,7.4,4.0,0,0,0,0,0,0,0,0,0,0,0,0,1,0,0,0,0,1,0,0,0,0,https://www.agoda.com/vi-vn/saigon-kim-lien-resort-cua-lo-beach/hotel/cua-lo-beach-vn.html
75229,Saigon Quang Binh Hotel,20 Quach Xuan Ky Street,Đồng Hới (Quảng Bình),Quang Binh,106.626526,17.465584,https://www.agoda.com/partners/partnersearch.aspx?hid=75229,95.0,,,476,8.0,4.0,0,0,0,0,0,0,0,0,0,0,0,0,1,0,0,0,0,0,0,0,0,0,https://www.agoda.com/vi-vn/saigon-quang-binh-hotel/hotel/dong-hoi-quang-binh-vn.html
81748,Hanoi Anise Hotel & Spa,22 Quan Thanh,Hanoi,Ha Noi,105.846107,21.039601,https://www.agoda.com/partners/partnersearch.aspx?hid=81748,36.0,2007.0,2019.0,119,7.5,4.0,0,0,0,0,0,0,0,0,0,0,0,0,1,0,0,0,0,0,0,0,0,0,https://www.agoda.com/vi-vn/hanoi-anise-hotel-spa/hotel/hanoi-vn.html
85643,Flower Hotel,"No 55, Nguyen Truong To Street, Ba Dinh, Ha Noi",Hanoi,Ha Noi,105.845764,21.042049,https://www.agoda.com/partners/partnersearch.aspx?hid=85643,42.0,2005.0,2012.0,12,8.2,3.0,0,0,0,0,0,0,0,0,0,0,0,0,1,0,0,0,0,0,0,0,0,0,https://www.agoda.com/vi-vn/flower-hotel/hotel/hanoi-vn.html
90096,A25 Hotel - 61 Luong Ngoc Quyen,"61 Luong Ngoc Quyen, Hang Buom, Hoan Kiem, Ha Noi",Hanoi,Ha Noi,105.851494,21.034677,https://www.agoda.com/partners/partnersearch.aspx?hid=90096,30.0,2007.0,2020.0,291,7.7,3.0,0,0,0,0,0,0,0,0,0,0,0,0,1,0,0,0,0,0,0,0,0,0,https://www.agoda.com/vi-vn/a25-hotel-luong-ngoc-quyen/hotel/hanoi-vn.html
90770,Aquarius Hotel,"13, 15 Au Trieu",Hanoi,Ha Noi,105.848292,21.028413,https://www.agoda.com/partners/partnersearch.aspx?hid=90770,30.0,2007.0,2009.0,337,7.4,3.0,0,0,0,0,0,0,0,0,0,0,0,0,1,0,0,0,0,0,0,0,0,0,https://www.agoda.com/vi-vn/aquarius-hotel/hotel/hanoi-vn.html
90776,InterContinental Hanoi Westlake,5 Tu Hoa,Hanoi,Ha Noi,105.831917,21.05899,https://www.agoda.com/partners/partnersearch.aspx?hid=90776,318.0,2007.0,,2848,8.7,5.0,0,0,0,0,0,0,0,0,0,0,0,0,1,0,0,0,0,0,0,0,0,0,https://www.agoda.com/vi-vn/intercontinental-hanoi-westlake/hotel/hanoi-vn.html
91721,Moon View Hotel,"65 Cua Bac Street, Ba Dinh District",Hanoi,Ha Noi,105.842789,21.042662,https://www.agoda.com/partners/partnersearch.aspx?hid=91721,40.0,2006.0,2011.0,44,7.6,3.0,0,0,0,0,0,0,0,0,0,0,0,0,1,0,0,0,0,0,0,0,0,0,https://www.agoda.com/vi-vn/moon-view-hotel/hotel/hanoi-vn.html
96584,Elios Hotel,"233 Pham Ngu Lao, Dist 1 Saigon",Ho Chi Minh City,Ho Chi Minh,106.692726,10.768152,https://www.agoda.com/partners/partnersearch.aspx?hid=96584,81.0,2007.0,2022.0,3009,8.3,3.0,0,0,0,0,0,0,0,0,0,0,0,0,1,0,0,0,0,0,0,0,0,0,https://www.agoda.com/vi-vn/elios-hotel/hotel/ho-chi-minh-city-vn.html
96585,Le Duy Hotel,"18-20 Nguyen Thi Nghia Street, Ben Thanh Ward, Distrist 1",Ho Chi Minh City,Ho Chi Minh,106.693832,10.770506,https://www.agoda.com/partners/partnersearch.aspx?hid=96585,108.0,2007.0,2018.0,342,7.7,3.0,0,0,0,0,0,0,0,0,0,0,0,0,1,0,0,0,0,0,0,0,0,0,https://www.agoda.com/vi-vn/le-duy-hotel/hotel/ho-chi-minh-city-vn.html
96605,Senriver Hotel,"238 Bach Dang St., Hai Chau Dist.",Da Nang,Da Nang,108.223907,16.063457,https://www.agoda.com/partners/partnersearch.aspx?hid=96605,173.0,2008.0,,1151,8.0,4.0,0,0,0,0,0,0,0,0,0,0,0,0,1,0,0,0,0,0,0,0,0,0,https://www.agoda.com/vi-vn/green-plaza-hotel/hotel/da-nang-vn.html
97221,Oriental Suites Hotel & Spa,"58 Hang Dao Street,Hoan Kiem district ",Hanoi,Ha Noi,105.851219,21.032473,https://www.agoda.com/partners/partnersearch.aspx?hid=97221,48.0,2007.0,2015.0,1194,8.8,4.0,0,0,0,0,0,0,0,0,0,0,0,0,1,0,0,0,0,0,0,0,0,0,https://www.agoda.com/vi-vn/oriental-suites-hotel-spa/hotel/hanoi-vn.html
97253,Hanoi Oldquarter house,106 Hang Bong,Hanoi,Ha Noi,105.84615,21.029651,https://www.agoda.com/partners/partnersearch.aspx?hid=97253,18.0,,2010.0,675,8.2,3.0,0,0,0,0,0,0,0,0,0,0,0,0,1,0,0,0,0,0,0,0,0,0,https://www.agoda.com/vi-vn/hanoi-gratitude-hotel/hotel/hanoi-vn.html
98964,West Lake 254D Hotel & Residence,"No.254 D Thuy Khue, Tay Ho District",Hanoi,Ha Noi,105.820694,21.044125,https://www.agoda.com/partners/partnersearch.aspx?hid=98964,89.0,1997.0,2016.0,1028,8.2,5.0,0,0,0,0,0,0,0,0,0,0,0,0,1,0,0,0,0,0,0,1,0,0,https://www.agoda.com/vi-vn/somerset-west-lake-serviced-residences/hotel/hanoi-vn.html
99006,Park View Hotel,09 Ngo Quyen Street,Hue,Thua Thien Hue,107.589066,16.462467,https://www.agoda.com/partners/partnersearch.aspx?hid=99006,119.0,2007.0,2015.0,320,8.1,4.0,0,0,0,0,0,0,0,0,0,0,0,0,1,0,0,0,0,0,0,0,0,0,https://www.agoda.com/vi-vn/park-view-hotel/hotel/hue-vn.html
104896,JOYE Hotel,47 Lương Ngọc Quyến,Hanoi,Ha Noi,105.852003,21.03473,https://www.agoda.com/partners/partnersearch.aspx?hid=104896,20.0,2000.0,2022.0,118,7.5,2.0,0,0,0,0,0,0,0,0,0,0,0,0,1,0,0,0,0,0,0,0,0,0,https://www.agoda.com/vi-vn/hotel-du-centre-ville/hotel/hanoi-vn.html
108217,Cherish Hue Hotel,57 Ben Nghe st.,Hue,Thua Thien Hue,107.594749,16.465488,https://www.agoda.com/partners/partnersearch.aspx?hid=108217,98.0,2008.0,2024.0,2955,8.8,4.0,0,0,0,0,0,0,0,0,0,0,0,0,1,0,0,0,0,0,0,0,0,0,https://www.agoda.com/vi-vn/cherish-hue-hotel/hotel/hue-vn.html
108257,Somerset Hoa Binh Hanoi,"No.106 Hoang Quoc Viet, Cau Giay District",Hanoi,Ha Noi,105.795143,21.046135,https://www.agoda.com/partners/partnersearch.aspx?hid=108257,206.0,2008.0,,1093,8.6,5.0,0,0,0,0,0,0,0,0,0,0,0,0,1,0,0,0,0,0,0,1,0,0,https://www.agoda.com/vi-vn/somerset-hoa-binh-serviced-residences/hotel/hanoi-vn.html
108278,Anantara Mui Ne Resort,12A Nguyen Dinh Chieu ,Phan Thiet,Binh Thuan,108.191849,10.941292,https://www.agoda.com/partners/partnersearch.aspx?hid=108278,90.0,2008.0,2012.0,1315,8.9,5.0,0,0,0,0,0,0,0,0,0,0,0,0,1,0,0,0,0,1,0,0,0,0,https://www.agoda.com/vi-vn/anantara-mui-ne-resort/hotel/phan-thiet-vn.html
108286,Novotel Ha Long Bay Hotel,"160 Ha Long Road, Bai Chay Ward",Hạ Long,Quang Ninh,107.041969,20.951851,https://www.agoda.com/partners/partnersearch.aspx?hid=108286,225.0,2008.0,,1562,8.4,4.0,0,0,0,0,0,0,0,0,0,0,0,0,1,0,0,0,0,0,0,0,0,0,https://www.agoda.com/vi-vn/novotel-ha-long-bay-hotel/hotel/halong-vn.html
108436,Hotel Victory Hue,8 Nguyen Huu Tho St. ,Hue,Thua Thien Hue,107.602615,16.462009,https://www.agoda.com/partners/partnersearch.aspx?hid=108436,22.0,2007.0,2022.0,58,7.6,2.0,0,0,0,0,0,0,0,0,0,0,0,0,1,0,0,0,0,0,0,0,0,0,https://www.agoda.com/vi-vn/victory-hotel-hue/hotel/hue-vn.html
108643,La Storia Ruby Hotel,3 Yen Thai Street,Hanoi,Ha Noi,105.847832,21.032015,https://www.agoda.com/partners/partnersearch.aspx?hid=108643,20.0,2008.0,2011.0,1042,9.2,3.0,0,0,0,0,0,0,0,0,0,0,0,0,1,0,0,0,0,0,0,0,0,0,https://www.agoda.com/vi-vn/la-storia-ruby-hotel/hotel/hanoi-vn.html
108649,Hong Ngoc Cochinchine Boutique Hotel & Spa,"95-97 Nguyen Truong To, Ba Dinh District",Hanoi,Ha Noi,105.844032,21.04274,https://www.agoda.com/partners/partnersearch.aspx?hid=108649,55.0,2007.0,2017.0,88,8.7,4.0,0,0,0,0,0,0,0,0,0,0,0,0,1,0,0,0,0,0,0,0,0,0,https://www.agoda.com/vi-vn/hong-ngoc-cochinchine-hotel/hotel/hanoi-vn.html
109086,Hanoi Old Town Hotel,"95 Hang Chieu Street, Hoan Kiem District",Hanoi,Ha Noi,105.849869,21.036922,https://www.agoda.com/partners/partnersearch.aspx?hid=109086,25.0,,2014.0,271,8.3,2.0,0,0,0,0,0,0,0,0,0,0,0,0,1,0,0,0,0,0,0,0,0,0,https://www.agoda.com/vi-vn/hanoi-old-town-hotel/hotel/hanoi-vn.html
109119,Novotel Nha Trang Hotel,50 Tran Phu Street ,Nha Trang,Khanh Hoa,109.196526,12.237739,https://www.agoda.com/partners/partnersearch.aspx?hid=109119,154.0,2008.0,,2851,9.0,4.0,0,0,0,0,0,0,0,0,0,0,0,0,1,0,0,0,0,0,0,0,0,0,https://www.agoda.com/vi-vn/novotel-nha-trang-hotel/hotel/nha-trang-vn.html
109160,Hanoi Lucky II Hotel,"11 Ngo Huyen, Hoan Kiem District",Hanoi,Ha Noi,105.848976,21.029572,https://www.agoda.com/partners/partnersearch.aspx?hid=109160,20.0,2008.0,,185,6.9,2.0,0,0,0,0,0,0,0,0,0,0,0,0,1,0,0,0,0,0,0,0,0,0,https://www.agoda.com/vi-vn/hanoi-lucky-ii-hotel/hotel/hanoi-vn.html
109162,Sophia Hotel,"36-38 Thai Van Lung Street, District 1",Ho Chi Minh City,Ho Chi Minh,106.70372,10.780318,https://www.agoda.com/partners/partnersearch.aspx?hid=109162,40.0,2008.0,2018.0,1804,7.4,3.0,0,0,0,0,0,0,0,0,0,0,0,0,1,0,0,0,0,0,0,0,0,0,https://www.agoda.com/vi-vn/sophia-hotel/hotel/ho-chi-minh-city-vn.html
109280,Duc Vuong Saigon Hotel - Bui Vien,"195 Bui Vien Street, Pham Ngu Lao Ward, District 1",Ho Chi Minh City,Ho Chi Minh,106.690968,10.76575,https://www.agoda.com/partners/partnersearch.aspx?hid=109280,51.0,2009.0,2012.0,6988,8.6,3.0,0,0,0,0,0,0,0,0,0,0,0,0,1,0,0,0,0,0,0,0,0,0,https://www.agoda.com/vi-vn/duc-vuong-hotel/hotel/ho-chi-minh-city-vn.html
111234,Lucky Hotel Hang Trong Street,"12 Hang Trong Street, Hoan Kiem District",Hanoi,Ha Noi,105.849213,21.030994,https://www.agoda.com/partners/partnersearch.aspx?hid=111234,20.0,1993.0,2009.0,61,7.5,2.0,0,0,0,0,0,0,0,0,0,0,0,0,1,0,0,0,0,0,0,0,0,0,https://www.agoda.com/vi-vn/lucky-hotel-hang-trong-street/hotel/hanoi-vn.html
111544,Movenpick Hotel Hanoi Centre,83a Lý Thường Kiệt,Hanoi,Ha Noi,105.844281,21.024684,https://www.agoda.com/partners/partnersearch.aspx?hid=111544,154.0,1997.0,2024.0,1570,8.4,5.0,0,0,0,0,0,0,0,0,0,0,0,0,1,0,0,0,0,0,0,0,0,0,https://www.agoda.com/vi-vn/movenpick-hotel-hanoi-h30154206/hotel/hanoi-vn.html
119832,Lucky 2 Hotel & Travel,46 Hang Hom Street,Hanoi,Ha Noi,105.848862,21.031534,https://www.agoda.com/partners/partnersearch.aspx?hid=119832,30.0,2015.0,2022.0,211,8.1,3.0,0,0,0,0,0,0,0,0,0,0,0,0,1,0,0,0,0,0,0,0,0,0,https://www.agoda.com/vi-vn/lucky-2-hotel-hang-hom-street/hotel/hanoi-vn.html
148680,Prostyle Hotel Ho Chi Minh,26 Thi Sách,Ho Chi Minh City,Ho Chi Minh,106.704058,10.779001,https://www.agoda.com/partners/partnersearch.aspx?hid=148680,79.0,2010.0,2023.0,1443,8.4,4.0,0,0,0,0,0,0,0,0,0,0,0,0,1,0,0,0,0,0,0,0,0,0,https://www.agoda.com/vi-vn/hotel-de-charme-saigon-former-asian-ruby-luxury-hotel/hotel/ho-chi-minh-city-vn.html
148705,Roseland Point Hotel,"65 Ho Tung Mau Street, Dist 1",Ho Chi Minh City,Ho Chi Minh,106.703812,10.771802,https://www.agoda.com/partners/partnersearch.aspx?hid=148705,45.0,,2013.0,1760,8.1,3.0,0,0,0,0,0,0,0,0,0,0,0,0,1,0,0,0,0,0,0,0,0,0,https://www.agoda.com/vi-vn/roseland-point-hotel/hotel/ho-chi-minh-city-vn.html
148706,Silverland Ben Thanh,"14 -16 Le Lai Street, Ben Thanh Ward, Dist 1",Ho Chi Minh City,Ho Chi Minh,106.697632,10.771739,https://www.agoda.com/partners/partnersearch.aspx?hid=148706,100.0,,2023.0,1528,9.4,4.0,0,0,0,0,0,0,0,0,0,0,0,0,1,0,0,0,0,0,0,0,0,0,https://www.agoda.com/vi-vn/silverland-central-tan-hai-long-hotel-spa-h29205041/hotel/ho-chi-minh-city-vn.html
148717,Sanouva Saigon Hotel,"175 Ly Tu Trong st, Ben Thanh Ward, District 1 ",Ho Chi Minh City,Ho Chi Minh,106.696602,10.773393,https://www.agoda.com/partners/partnersearch.aspx?hid=148717,53.0,2009.0,2022.0,4533,8.5,3.5,0,0,0,0,0,0,0,0,0,0,0,0,1,0,0,0,0,0,0,0,0,0,https://www.agoda.com/vi-vn/sanouva-saigon-hotel/hotel/ho-chi-minh-city-vn.html
148981,Hoi An Lantern Hotel,288 Nguyen Duy Hieu Street,Hoi An,Quang Nam,108.3377,15.878693,https://www.agoda.com/partners/partnersearch.aspx?hid=148981,62.0,2003.0,,70,8.0,3.0,0,0,0,0,0,0,0,0,0,0,0,0,1,0,0,0,0,0,0,0,0,0,https://www.agoda.com/vi-vn/hoi-an-lantern-hotel/hotel/hoi-an-vn.html
149036,Muong Thanh Luxury Song Han Hotel,"115 Nguyen Van Linh St., Nam Duong Ward, Hai Chau District ",Da Nang,Da Nang,108.216454,16.060394,https://www.agoda.com/partners/partnersearch.aspx?hid=149036,183.0,2005.0,2022.0,2429,8.5,5.0,0,0,0,0,0,0,0,0,0,0,0,0,1,0,0,0,0,0,0,0,0,0,https://www.agoda.com/vi-vn/oneopera-danang-hotel/hotel/da-nang-vn.html
149038,Muong Thanh Grand Gia Lai,537 Đ. H ng Vương,Pleiku (Gia Lai),Gia Lai,108.013406,13.972185,https://www.agoda.com/partners/partnersearch.aspx?hid=149038,116.0,2006.0,2024.0,569,7.8,4.0,0,0,0,0,0,0,0,0,0,0,0,0,1,0,0,0,0,0,0,0,0,0,https://www.agoda.com/vi-vn/hagl-hotel-gia-lai/hotel/pleiku-gia-lai-vn.html
149067,Sherwood Residence,127 Pasteur District 3 ,Ho Chi Minh City,Ho Chi Minh,106.693123,10.782525,https://www.agoda.com/partners/partnersearch.aspx?hid=149067,228.0,2007.0,2015.0,2967,9.1,5.0,0,0,0,0,0,0,0,0,0,0,0,0,1,0,0,0,0,0,0,0,0,0,https://www.agoda.com/vi-vn/sherwood-residence-hotel/hotel/ho-chi-minh-city-vn.html
159164,Hanoi A1 Hotel,"No 1, Cau Go street, Hoan Kiem District",Hanoi,Ha Noi,105.853821,21.032042,https://www.agoda.com/partners/partnersearch.aspx?hid=159164,25.0,2009.0,2018.0,136,8.1,3.0,0,0,0,0,0,0,0,0,0,0,0,0,1,0,0,0,0,0,0,0,0,0,https://www.agoda.com/vi-vn/hanoi-a1-hotel/hotel/hanoi-vn.html
159186,Cochin Zen Hotel,46 Thu Khoa Huan,Ho Chi Minh City,Ho Chi Minh,106.696718,10.774519,https://www.agoda.com/partners/partnersearch.aspx?hid=159186,100.0,2008.0,2018.0,4496,8.7,4.0,0,0,0,0,0,0,0,0,0,0,0,0,1,0,0,0,0,0,0,0,0,0,https://www.agoda.com/vi-vn/alagon-zen-hotel-spa/hotel/ho-chi-minh-city-vn.html
159223,Atrium Hanoi Hotel,32A Dao Duy Tu Street,Hanoi,Ha Noi,105.852631,21.036392,https://www.agoda.com/partners/partnersearch.aspx?hid=159223,35.0,2008.0,2014.0,395,7.2,3.0,0,0,0,0,0,0,0,0,0,0,0,0,1,0,0,0,0,0,0,0,0,0,https://www.agoda.com/vi-vn/atrium-hanoi-hotel/hotel/hanoi-vn.html
159271,A25 Hotel- 35 Mac Thi Buoi,"35 Mac Thi Buoi, Ben Nghe, District 1, Ho Chi Minh",Ho Chi Minh City,Ho Chi Minh,106.704835,10.775283,https://www.agoda.com/partners/partnersearch.aspx?hid=159271,29.0,,,480,7.5,2.5,0,0,0,0,0,0,0,0,0,0,0,0,1,0,0,0,0,0,0,0,0,0,https://www.agoda.com/vi-vn/a25-hotel-mac-thi-buoi/hotel/ho-chi-minh-city-vn.html
161500,Bizu Hotel,"15-17 Cao Trieu Phat Street, Hung Phuoc 1, Phu My Hung, District 7",Ho Chi Minh City,Ho Chi Minh,106.709618,10.731906,https://www.agoda.com/partners/partnersearch.aspx?hid=161500,24.0,2009.0,2010.0,576,7.8,2.5,0,0,0,0,0,0,0,0,0,0,0,0,1,0,0,0,0,0,0,0,0,0,https://www.agoda.com/vi-vn/bizu-boutique-hotel-phu-my-hung/hotel/ho-chi-minh-city-vn.html
161611,Thuy Duong Boutique Hotel Hue,"41 Hung Vuong Street, Hue City ,Viet Nam",Hue,Thua Thien Hue,107.593315,16.465046,https://www.agoda.com/partners/partnersearch.aspx?hid=161611,18.0,2008.0,,416,9.1,2.0,0,0,0,0,0,0,0,0,0,0,0,0,1,0,0,0,0,0,0,0,0,0,https://www.agoda.com/vi-vn/thuy-duong-hotel/hotel/hue-vn.html
161613,Nicecy Saigon Hotel,"4B-4C Thi Sach Street, Ben Nghe Ward, Dist. 1",Ho Chi Minh City,Ho Chi Minh,106.705772,10.7773,https://www.agoda.com/partners/partnersearch.aspx?hid=161613,43.0,2007.0,2010.0,482,8.1,3.0,0,0,0,0,0,0,0,0,0,0,0,0,1,0,0,0,0,0,0,0,0,0,https://www.agoda.com/vi-vn/ho-sen-hotel/hotel/ho-chi-minh-city-vn.html
161666,Imperial Hotel & Spa,"44 Hang Hanh Street, Hoan Kiem District",Hanoi,Ha Noi,105.849815,21.031115,https://www.agoda.com/partners/partnersearch.aspx?hid=161666,40.0,2009.0,2019.0,1552,9.1,4.0,0,0,0,0,0,0,0,0,0,0,0,0,1,0,0,0,0,0,0,0,0,0,https://www.agoda.com/vi-vn/hanoi-imperial-hotel/hotel/hanoi-vn.html
161676,Mercure Hanoi La Gare Hotel,"94 Ly Thuong Kiet Street, Hoan Kiem District",Hanoi,Ha Noi,105.841736,21.02614,https://www.agoda.com/partners/partnersearch.aspx?hid=161676,100.0,2009.0,,603,8.4,4.0,0,0,0,0,0,0,0,0,0,0,0,0,1,0,0,0,0,0,0,0,0,0,https://www.agoda.com/vi-vn/mercure-hanoi-la-gare-hotel/hotel/hanoi-vn.html
161677,Muong Thanh Holiday Hue Hotel,"38 Le Loi Street, Hue city, Viet Nam",Hue,Thua Thien Hue,107.593239,16.469423,https://www.agoda.com/partners/partnersearch.aspx?hid=161677,108.0,2006.0,2018.0,1501,8.5,4.0,0,0,0,0,0,0,0,0,0,0,0,0,1,0,0,0,0,0,0,0,0,0,https://www.agoda.com/vi-vn/muong-thanh-holiday-hue-hotel/hotel/hue-vn.html
161693,Sun River Hotel,"132-134-136 Bach Dang Street, Hai Chau District",Da Nang,Da Nang,108.22467,16.067476,https://www.agoda.com/partners/partnersearch.aspx?hid=161693,45.0,2008.0,2019.0,2689,8.5,3.5,0,0,0,0,0,0,0,0,0,0,0,0,1,0,0,0,0,0,0,0,0,0,https://www.agoda.com/vi-vn/sun-river-hotel/hotel/da-nang-vn.html
161717,Da Nang Pacific Hotel,92 Phan Chu Trinh Street,Da Nang,Da Nang,108.219864,16.065872,https://www.agoda.com/partners/partnersearch.aspx?hid=161717,58.0,2007.0,,632,7.2,0.0,0,0,0,0,0,0,0,0,0,0,0,0,1,0,0,0,0,0,0,0,0,0,https://www.agoda.com/vi-vn/da-nang-pacific-hotel/hotel/da-nang-vn.html
161729,The IMPERIAL Vung Tau Hotel ,"159 Thuy Van Street, Thang Tam Ward ",Vung Tau,Ba Ria Vung Tau,107.09507,10.344135,https://www.agoda.com/partners/partnersearch.aspx?hid=161729,350.0,2009.0,2016.0,7742,8.8,5.0,0,0,0,0,0,0,0,0,0,0,0,0,1,0,0,0,0,1,0,0,0,0,https://www.agoda.com/vi-vn/the-imperial-hotel-vung-tau/hotel/vung-tau-vn.html
161742,Cozy Midnight Hotel,"145-147 Ly Tu Trong Street, Ben Thanh Ward, District 1 ",Ho Chi Minh City,Ho Chi Minh,106.696947,10.77352,https://www.agoda.com/partners/partnersearch.aspx?hid=161742,60.0,,2022.0,1043,8.1,3.0,0,0,0,0,0,0,0,0,0,0,0,0,1,0,0,0,0,0,0,0,0,0,https://www.agoda.com/vi-vn/ha-hien-signature-hotel/hotel/ho-chi-minh-city-vn.html
161750,Queen Ann Hotel,"86-88 Bui Thi Xuan Street, District 1",Ho Chi Minh City,Ho Chi Minh,106.689348,10.770917,https://www.agoda.com/partners/partnersearch.aspx?hid=161750,57.0,,2014.0,703,8.0,3.0,0,0,0,0,0,0,0,0,0,0,0,0,1,0,0,0,0,0,0,0,0,0,https://www.agoda.com/vi-vn/queen-ann-hotel/hotel/ho-chi-minh-city-vn.html
161765,Church Boutique Hotel Hang Trong,"35-37 Hang Trong Street, Hoan Kiem District",Hanoi,Ha Noi,105.849602,21.030745,https://www.agoda.com/partners/partnersearch.aspx?hid=161765,55.0,2008.0,2014.0,441,7.6,4.0,0,0,0,0,0,0,0,0,0,0,0,0,1,0,0,0,0,0,0,0,0,0,https://www.agoda.com/vi-vn/church-boutique-hotel-hang-trong/hotel/hanoi-vn.html
161806,Emerald Hotel Hanoi,64 Trieu Viet Vuong Street,Hanoi,Ha Noi,105.850502,21.015772,https://www.agoda.com/partners/partnersearch.aspx?hid=161806,35.0,2008.0,2011.0,86,8.0,3.0,0,0,0,0,0,0,0,0,0,0,0,0,1,0,0,0,0,0,0,0,0,0,https://www.agoda.com/vi-vn/emerald-hotel-hanoi/hotel/hanoi-vn.html
161820,Thanh Binh Central Hotel,98 Ba Trieu Street - Hội An City,Hoi An,Quang Nam,108.326204,15.880466,https://www.agoda.com/partners/partnersearch.aspx?hid=161820,52.0,2010.0,2019.0,942,8.3,4.0,0,0,0,0,0,0,0,0,0,0,0,0,1,0,0,0,0,0,0,0,0,0,https://www.agoda.com/vi-vn/thanh-binh-iii-hotel/hotel/hoi-an-vn.html
161822,Hanoi Bao Khanh Hotel,No. 22 Bao Khanh Street,Hanoi,Ha Noi,105.850471,21.030201,https://www.agoda.com/partners/partnersearch.aspx?hid=161822,56.0,2008.0,,192,7.0,3.0,0,0,0,0,0,0,0,0,0,0,0,0,1,0,0,0,0,0,0,0,0,0,https://www.agoda.com/vi-vn/hanoi-bao-khanh-hotel/hotel/hanoi-vn.html
161835,Cosiana Hotel,"92 Le Duan Street, Hoan Kiem District",Hanoi,Ha Noi,105.841423,21.026613,https://www.agoda.com/partners/partnersearch.aspx?hid=161835,50.0,2010.0,2014.0,326,7.9,3.5,0,0,0,0,0,0,0,0,0,0,0,0,1,0,0,0,0,0,0,0,0,0,https://www.agoda.com/vi-vn/cosiana-hotel/hotel/hanoi-vn.html
161839,Xuan Hung Hotel,"56 Phan Chu Trinh, Hai Chau, Da Nang",Da Nang,Da Nang,108.220154,16.067385,https://www.agoda.com/partners/partnersearch.aspx?hid=161839,42.0,2005.0,,88,6.7,2.0,0,0,0,0,0,0,0,0,0,0,0,0,1,0,0,0,0,0,0,0,0,0,https://www.agoda.com/vi-vn/xuan-hung-hotel/hotel/da-nang-vn.html
161853,Aquarius Grand Hotel,"90B Nguyen Huu Huan Str, Hoan Kiem District, Hanoi Old Quarter",Hanoi,Ha Noi,105.854438,21.032241,https://www.agoda.com/partners/partnersearch.aspx?hid=161853,28.0,2009.0,2022.0,1374,8.5,3.0,0,0,0,0,0,0,0,0,0,0,0,0,1,0,0,0,0,0,0,0,0,0,https://www.agoda.com/vi-vn/aquarius-grand-hotel/hotel/hanoi-vn.html
161962,Super OYO 266 Golden Gate,69 Le Hong Phong,Da Nang,Da Nang,108.219231,16.064095,https://www.agoda.com/partners/partnersearch.aspx?hid=161962,,,,501,6.9,2.0,0,0,0,0,0,0,0,0,0,0,0,0,1,0,0,0,0,0,0,0,0,0,https://www.agoda.com/vi-vn/golden-gate-1-hotel-da-nang/hotel/da-nang-vn.html
164672,A25 Hotel - 29 Bui Thi Xuan,"29 - 31 Bui Thi Xuan, Ben Thanh, District 1, Ho Chi Minh ",Ho Chi Minh City,Ho Chi Minh,106.689995,10.771425,https://www.agoda.com/partners/partnersearch.aspx?hid=164672,56.0,,,1032,8.2,3.0,0,0,0,0,0,0,0,0,0,0,0,0,1,0,0,0,0,0,0,0,0,0,https://www.agoda.com/vi-vn/hoang-ngan-hotel/hotel/ho-chi-minh-city-vn.html
164684,Sense City Hotel & Spa,"15 Bui Thi Xuan Street, Ben Thanh Ward, District 1 ",Ho Chi Minh City,Ho Chi Minh,106.690394,10.772037,https://www.agoda.com/partners/partnersearch.aspx?hid=164684,42.0,2002.0,2018.0,2566,7.5,3.0,0,0,0,0,0,0,0,0,0,0,0,0,1,0,0,0,0,0,0,0,0,0,https://www.agoda.com/vi-vn/city-view-hotel_3/hotel/ho-chi-minh-city-vn.html
165221,Romance Hotel,16 Nguyen Thai Hoc Street ,Hue,Thua Thien Hue,107.595894,16.467983,https://www.agoda.com/partners/partnersearch.aspx?hid=165221,132.0,2009.0,2024.0,633,8.8,0.0,0,0,0,0,0,0,0,0,0,0,0,0,1,0,0,0,0,0,0,0,0,0,https://www.agoda.com/vi-vn/romance-hotel/hotel/hue-vn.html
165226,Dakruco Hotel,No. 30 Nguyen Chi Thanh Street,Buon Ma Thuot,Dak Lak,108.067145,12.694938,https://www.agoda.com/partners/partnersearch.aspx?hid=165226,114.0,2009.0,,689,7.6,4.0,0,0,0,0,0,0,0,0,0,0,0,0,1,0,0,0,0,0,0,0,0,0,https://www.agoda.com/vi-vn/dakruco-hotel/hotel/buon-ma-thuot-vn.html
165247,Liberty Central Saigon Centre Hotel,"175-177-179 Le Thanh Ton Street, District 1",Ho Chi Minh City,Ho Chi Minh,106.698814,10.773667,https://www.agoda.com/partners/partnersearch.aspx?hid=165247,140.0,2010.0,2015.0,6397,8.4,4.0,0,0,0,0,0,0,0,0,0,0,0,0,1,0,0,0,0,0,0,0,0,0,https://www.agoda.com/vi-vn/liberty-central-saigon-centre-hotel/hotel/ho-chi-minh-city-vn.html
165281,Splendid Star Grand Hotel and Spa,"No. 14 Tho Xuong lane, Au Trieu str",Hanoi,Ha Noi,105.8486,21.029056,https://www.agoda.com/partners/partnersearch.aspx?hid=165281,32.0,2009.0,,878,8.5,3.5,0,0,0,0,0,0,0,0,0,0,0,0,1,0,0,0,0,0,0,0,0,0,https://www.agoda.com/vi-vn/splendid-star-grand-hotel/hotel/hanoi-vn.html
165362,Starlet Hotel Nha Trang,51 Tue Tinh Street,Nha Trang,Khanh Hoa,109.196144,12.231193,https://www.agoda.com/partners/partnersearch.aspx?hid=165362,85.0,2009.0,2014.0,323,8.0,3.5,0,0,0,0,0,0,0,0,0,0,0,0,1,0,0,0,0,0,0,0,0,0,https://www.agoda.com/vi-vn/starlet-hotel-nha-trang/hotel/nha-trang-vn.html
165383,Lam Bao Long Hotel,80 Le Loi Street,Hue,Thua Thien Hue,107.594406,16.470621,https://www.agoda.com/partners/partnersearch.aspx?hid=165383,25.0,2005.0,2010.0,140,7.5,2.0,0,0,0,0,0,0,0,0,0,0,0,0,1,0,0,0,0,0,0,0,0,0,https://www.agoda.com/vi-vn/lam-bao-long-hotel/hotel/hue-vn.html
165452,Memory Nha Trang Hotel,"28A Bac Son Street, Vinh Hai Ward",Nha Trang,Khanh Hoa,109.200432,12.278458,https://www.agoda.com/partners/partnersearch.aspx?hid=165452,55.0,2009.0,,32,5.9,3.0,0,0,0,0,0,0,0,0,0,0,0,0,1,0,0,0,0,0,0,0,0,0,https://www.agoda.com/vi-vn/memory-nha-trang-hotel/hotel/nha-trang-vn.html
165454,The Spring Hotel,44-46 Le Thanh Ton St ,Ho Chi Minh City,Ho Chi Minh,106.70311,10.778931,https://www.agoda.com/partners/partnersearch.aspx?hid=165454,45.0,1996.0,2009.0,1185,8.0,2.5,0,0,0,0,0,0,0,0,0,0,0,0,1,0,0,0,0,0,0,0,0,0,https://www.agoda.com/vi-vn/the-spring-hotel/hotel/ho-chi-minh-city-vn.html
165511,JW Marriott Hotel & Suites Saigon,"Corner Hai Ba Trung street & Le Duan boulevard , Ben Nghe Ward, District 01",Ho Chi Minh City,Ho Chi Minh,106.700539,10.781058,https://www.agoda.com/partners/partnersearch.aspx?hid=165511,565.0,2009.0,,1559,9.1,5.0,0,0,0,0,0,0,0,0,0,0,0,0,1,0,0,0,0,0,0,0,0,0,https://www.agoda.com/vi-vn/intercontinental-saigon/hotel/ho-chi-minh-city-vn.html
165512,InterContinental Residences Saigon,Corner Nguyen Du St & Le Van Huu Street ,Ho Chi Minh City,Ho Chi Minh,106.699814,10.781486,https://www.agoda.com/partners/partnersearch.aspx?hid=165512,257.0,2009.0,,923,9.3,5.0,1,0,0,0,0,0,0,0,0,0,0,0,1,0,0,0,0,0,0,0,0,0,https://www.agoda.com/vi-vn/intercontinental-residence-saigon/hotel/ho-chi-minh-city-vn.html
165709,The Summer Hotel,34C-D Nguyen Thien Thuat Street ,Nha Trang,Khanh Hoa,109.193794,12.236621,https://www.agoda.com/partners/partnersearch.aspx?hid=165709,99.0,2024.0,,1271,8.3,4.0,0,0,0,0,0,0,0,0,0,0,0,0,1,0,0,0,0,0,0,0,0,0,https://www.agoda.com/vi-vn/the-summer-hotel_3/hotel/nha-trang-vn.html
168950,Adora Hotel,"42- 44 Thu Khoa Huan Street, Ben Thanh Ward, District 1",Ho Chi Minh City,Ho Chi Minh,106.696987,10.774206,https://www.agoda.com/partners/partnersearch.aspx?hid=168950,59.0,,2017.0,2032,8.3,4.0,0,0,0,0,0,0,0,0,0,0,0,0,1,0,0,0,0,0,0,0,0,0,https://www.agoda.com/vi-vn/adora-hotel/hotel/ho-chi-minh-city-vn.html
168993,Muong Thanh Dalat Hotel,"42 Phan Boi Chau Street,Ward 1 ",Dalat,Lam Dong,108.44017,11.942559,https://www.agoda.com/partners/partnersearch.aspx?hid=168993,71.0,2007.0,2014.0,1411,8.0,4.0,0,0,0,0,0,0,0,0,0,0,0,0,1,0,0,0,0,0,0,0,0,0,https://www.agoda.com/vi-vn/muong-thanh-dalat-hotel/hotel/dalat-vn.html
168995,Silverland Min Hotel,"81 Hai Ba Trung Street, District 1 ",Ho Chi Minh City,Ho Chi Minh,106.704544,10.776777,https://www.agoda.com/partners/partnersearch.aspx?hid=168995,37.0,,2019.0,1435,8.7,3.0,0,0,0,0,0,0,0,0,0,0,0,0,1,0,0,0,0,0,0,0,0,0,https://www.agoda.com/vi-vn/silverland-min-hotel/hotel/ho-chi-minh-city-vn.html
169047,Blessing 1 Saigon Hotel - Hong Thien Loc Group,"48-50 Nguyen An Ninh Street, Ben Thanh Ward",Ho Chi Minh City,Ho Chi Minh,106.696633,10.771676,https://www.agoda.com/partners/partnersearch.aspx?hid=169047,70.0,2011.0,2015.0,1265,7.3,3.0,0,0,0,0,0,0,0,0,0,0,0,0,1,0,0,0,0,0,0,0,0,0,https://www.agoda.com/vi-vn/blessing-1-saigon-hotel-hong-thien-loc-group/hotel/ho-chi-minh-city-vn.html
172335,Central Park Saigon Hotel,223 Hai Bà Trưng,Ho Chi Minh City,Ho Chi Minh,106.692786,10.787031,https://www.agoda.com/partners/partnersearch.aspx?hid=172335,54.0,2006.0,2022.0,974,7.8,3.0,0,0,0,0,0,0,0,0,0,0,0,0,1,0,0,0,0,0,0,0,0,0,https://www.agoda.com/vi-vn/central-park-saigon-hotel/hotel/ho-chi-minh-city-vn.html
173590,Ideal Hotel Hue,1/11 Vo Thi Sau Street,Hue,Thua Thien Hue,107.594521,16.468508,https://www.agoda.com/partners/partnersearch.aspx?hid=173590,35.0,2009.0,2009.0,343,7.0,3.0,0,0,0,0,0,0,0,0,0,0,0,0,1,0,0,0,0,0,0,0,0,0,https://www.agoda.com/vi-vn/ideal-hotel-hue/hotel/hue-vn.html
173622,Sen Viet Hotel,"33 Cao Thang Street, District 3 ",Ho Chi Minh City,Ho Chi Minh,106.682846,10.769188,https://www.agoda.com/partners/partnersearch.aspx?hid=173622,92.0,2010.0,2023.0,981,8.1,4.0,0,0,0,0,0,0,0,0,0,0,0,0,1,0,0,0,0,0,0,0,0,0,https://www.agoda.com/vi-vn/sen-viet-hotel/hotel/ho-chi-minh-city-vn.html
173625,Ambassador Saigon Hotel,84A Bui Thi Xuan Street,Ho Chi Minh City,Ho Chi Minh,106.689501,10.771015,https://www.agoda.com/partners/partnersearch.aspx?hid=173625,65.0,,2018.0,922,7.5,3.5,0,0,0,0,0,0,0,0,0,0,0,0,1,0,0,0,0,0,0,0,0,0,https://www.agoda.com/vi-vn/ambassador-saigon-hotel/hotel/ho-chi-minh-city-vn.html
174450,Sky Gem Hotel Ben Thanh ,48-50 Thu Khoa Huan Street ,Ho Chi Minh City,Ho Chi Minh,106.696738,10.774577,https://www.agoda.com/partners/partnersearch.aspx?hid=174450,90.0,2010.0,2023.0,556,8.4,4.0,0,0,0,0,0,0,0,0,0,0,0,0,1,0,0,0,0,0,0,0,0,0,https://www.agoda.com/vi-vn/sky-gem-hotel-ben-thanh/hotel/ho-chi-minh-city-vn.html
174464,La Dolce Vita Hotel,"53 Hang Bo Street, Hoan Kiem District",Hanoi,Ha Noi,105.849184,21.033748,https://www.agoda.com/partners/partnersearch.aspx?hid=174464,52.0,2009.0,2022.0,151,7.9,4.0,0,0,0,0,0,0,0,0,0,0,0,0,1,0,0,0,0,0,0,0,0,0,https://www.agoda.com/vi-vn/la-dolce-vita-hotel/hotel/hanoi-vn.html
178074,Golden Lotus Hotel Nha Trang - Tran Phu Street,"96 B4, Tran Phu Street",Nha Trang,Khanh Hoa,109.19974,12.227562,https://www.agoda.com/partners/partnersearch.aspx?hid=178074,54.0,2009.0,2021.0,171,7.4,2.5,0,0,0,0,0,0,0,0,0,0,0,0,1,0,0,0,0,0,0,0,0,0,https://www.agoda.com/vi-vn/golden-lotus-hotel-nha-trang-tran-phu-street/hotel/nha-trang-vn.html
178091,Silk Path Hotel Hanoi,195-199 Hang Bong,Hanoi,Ha Noi,105.844678,21.028701,https://www.agoda.com/partners/partnersearch.aspx?hid=178091,106.0,2010.0,,1046,8.7,4.5,0,0,0,0,0,0,0,0,0,0,0,0,1,0,0,0,0,0,0,0,0,0,https://www.agoda.com/vi-vn/silk-path-hotel/hotel/hanoi-vn.html
178099,Alisa Hotel & Spa,9 P. Hàng Vôi,Hanoi,Quang Nam,105.856389,21.030563,https://www.agoda.com/partners/partnersearch.aspx?hid=178099,38.0,,2018.0,824,8.4,4.0,0,0,0,0,0,0,0,0,0,0,0,0,1,0,0,0,0,0,0,0,0,0,https://www.agoda.com/vi-vn/alisa-hotel-spa_2/hotel/hanoi-vn.html
178114,La Nueva Boutique Hotel Hanoi,"32 Lo Su, Ly Thai To, Hoan Kiem, Hanoi",Hanoi,Ha Noi,105.85497,21.03159,https://www.agoda.com/partners/partnersearch.aspx?hid=178114,35.0,2010.0,2021.0,3277,9.3,4.0,0,0,0,0,0,0,0,0,0,0,0,0,1,0,0,0,0,0,0,0,0,0,https://www.agoda.com/vi-vn/hanoi-la-siesta-diamond-hotel/hotel/hanoi-vn.html
178195,Mercure Vung Tau,"03 Ha Long Street, Ward 2, Vung Tau City, Vietnam",Vung Tau,Ba Ria Vung Tau,107.081436,10.326572,https://www.agoda.com/partners/partnersearch.aspx?hid=178195,80.0,2008.0,2020.0,823,8.9,4.0,0,0,0,0,0,0,0,0,0,0,0,0,1,0,0,0,0,0,0,0,0,0,https://www.agoda.com/vi-vn/mercure-vung-tau/hotel/vung-tau-vn.html
178218,A&EM Corp - The Petit Hotel,"179 Ly Tu Trong Street, Ben Thanh Ward, District 1 ",Ho Chi Minh City,Ho Chi Minh,106.696175,10.77313,https://www.agoda.com/partners/partnersearch.aspx?hid=178218,48.0,,,1472,7.7,2.0,0,0,0,0,0,0,0,0,0,0,0,0,1,0,0,0,0,0,0,0,0,0,https://www.agoda.com/vi-vn/a-em-corp-the-petit-hotel/hotel/ho-chi-minh-city-vn.html
178219,A & Em Saigon Hotel,"39 - 41 Thu Khoa Huan Street, Ben Thanh Ward, District 1",Ho Chi Minh City,Ho Chi Minh,106.696968,10.773989,https://www.agoda.com/partners/partnersearch.aspx?hid=178219,99.0,2009.0,2015.0,3085,8.1,4.0,0,0,0,0,0,0,0,0,0,0,0,0,1,0,0,0,0,0,0,0,0,0,https://www.agoda.com/vi-vn/a-em-saigon-hotel/hotel/ho-chi-minh-city-vn.html
178221,The White Hotel 8A Thai Van Lung,"8A Thai Van Lung street, Ben Nghe Ward, District 1, Ho Chi Minh City",Ho Chi Minh City,Ho Chi Minh,106.704768,10.779165,https://www.agoda.com/partners/partnersearch.aspx?hid=178221,60.0,2014.0,2022.0,2386,7.9,3.0,0,0,0,0,0,0,0,0,0,0,0,0,1,0,0,0,0,0,0,0,0,0,https://www.agoda.com/vi-vn/the-white-hotel-8a-thai-van-lung/hotel/ho-chi-minh-city-vn.html
178263,Prime New,22 Tôn Đản,Nha Trang,Khanh Hoa,109.196178,12.237513,https://www.agoda.com/partners/partnersearch.aspx?hid=178263,74.0,2009.0,2022.0,467,8.4,4.0,0,0,0,0,0,0,0,0,0,0,0,0,1,0,0,0,0,0,0,0,0,0,https://www.agoda.com/vi-vn/prime-hotel-nha-trang/hotel/nha-trang-vn.html
178283,Hoi An Golden Holiday Hotel & Spa,"467 Hai Ba Trung Street, Tan An, Hoi  An",Hoi An,Quang Nam,108.327904,15.887595,https://www.agoda.com/partners/partnersearch.aspx?hid=178283,47.0,2010.0,2019.0,693,9.3,4.0,0,0,0,0,0,0,0,0,0,0,0,0,1,0,0,0,0,0,0,0,0,0,https://www.agoda.com/vi-vn/golden-holiday-hotel-spa/hotel/hoi-an-vn.html
179072,Palago Park View Hotel,287-289 Pham Ngu Lao Street,Ho Chi Minh City,Ho Chi Minh,106.690957,10.767655,https://www.agoda.com/partners/partnersearch.aspx?hid=179072,51.0,2008.0,2013.0,927,7.3,3.0,0,0,0,0,0,0,0,0,0,0,0,0,1,0,0,0,0,0,0,0,0,0,https://www.agoda.com/vi-vn/lafelix-hotel/hotel/ho-chi-minh-city-vn.html
179077,Saigon Dalat Hotel,"180, 3 Thang 2 Street ",Dalat,Lam Dong,108.429356,11.9392,https://www.agoda.com/partners/partnersearch.aspx?hid=179077,160.0,2005.0,2008.0,2917,8.4,4.0,0,0,0,0,0,0,0,0,0,0,0,0,1,0,0,0,0,0,0,0,0,0,https://www.agoda.com/vi-vn/saigon-dalat-hotel/hotel/dalat-vn.html
179080,TTC Hotel Ngoc Lan,42 Nguyen Chi Thanh,Dalat,Lam Dong,108.436531,11.940785,https://www.agoda.com/partners/partnersearch.aspx?hid=179080,91.0,1960.0,2011.0,3461,8.3,4.5,0,0,0,0,0,0,0,0,0,0,0,0,1,0,0,0,0,0,0,0,0,0,https://www.agoda.com/vi-vn/ttc-hotel-premium-ngoc-lan_5/hotel/dalat-vn.html
179092,Sammy Hotel Dalat,01 Le Hong Phong Street,Dalat,Lam Dong,108.43257,11.935537,https://www.agoda.com/partners/partnersearch.aspx?hid=179092,102.0,2006.0,2015.0,782,8.1,4.0,0,0,0,0,0,0,0,0,0,0,0,0,1,0,0,0,0,0,0,0,0,0,https://www.agoda.com/vi-vn/sammy-hotel-dalat/hotel/dalat-vn.html
181769,Tran Ly Hotel,78 Le Loi street,Hue,Thua Thien Hue,107.593929,16.470709,https://www.agoda.com/partners/partnersearch.aspx?hid=181769,15.0,2005.0,2017.0,166,8.6,1.0,0,0,0,0,0,0,0,0,0,0,0,0,1,0,0,0,0,0,0,0,0,0,https://www.agoda.com/vi-vn/tran-ly-hotel/hotel/hue-vn.html
181774,Ha Noi Paradise Hotel & Spa,"62 Hang Bac Street, Hoan Kiem District",Hanoi,Ha Noi,105.852323,21.033959,https://www.agoda.com/partners/partnersearch.aspx?hid=181774,25.0,2010.0,,807,8.4,3.0,0,0,0,0,0,0,0,0,0,0,0,0,1,0,0,0,0,0,0,0,0,0,https://www.agoda.com/vi-vn/paradise-boutique-hotel/hotel/hanoi-vn.html
181788,Gold Coast Da Nang Hotel,27 Ho Xuan Huong street,Da Nang,Da Nang,108.246043,16.039931,https://www.agoda.com/partners/partnersearch.aspx?hid=181788,50.0,2010.0,,336,7.1,3.0,0,0,0,0,0,0,0,0,0,0,0,0,1,0,0,0,0,0,0,0,0,0,https://www.agoda.com/vi-vn/gold-coast-hotel/hotel/da-nang-vn.html
181816,HAWAII RESORT PHU QUOC,68 Tran Hung Dao Street,Phu Quoc Island,Kien Giang,103.962486,10.206222,https://www.agoda.com/partners/partnersearch.aspx?hid=181816,100.0,2005.0,2013.0,630,7.4,3.5,0,0,0,0,0,0,0,0,0,0,0,0,1,0,0,0,0,1,0,0,0,0,https://www.agoda.com/vi-vn/thien-hai-son-resort/hotel/phu-quoc-island-vn.html
182145,Yen Nhi Ninh Binh Hotel,"​Tam Coc - Bich Dong, Trang An UNESCO World Heritage, Ninh Hai - Hoa Lu",Ninh Bình,Ninh Binh,105.938072,20.219113,https://www.agoda.com/partners/partnersearch.aspx?hid=182145,102.0,2007.0,2012.0,11,7.9,3.0,0,0,0,0,0,0,0,0,0,0,0,0,1,0,0,0,0,0,0,0,0,0,https://www.agoda.com/vi-vn/yen-nhi-ninh-binh-hotel/hotel/ninh-binh-vn.html
182164,Ocean Star Hotel,43AThuy Van,Vung Tau,Ba Ria Vung Tau,107.088509,10.331018,https://www.agoda.com/partners/partnersearch.aspx?hid=182164,45.0,2009.0,,719,7.1,3.0,0,0,0,0,0,0,0,0,0,0,0,0,1,0,0,0,0,0,0,0,0,0,https://www.agoda.com/vi-vn/ocean-star-hotel/hotel/vung-tau-vn.html
182167,Pullman Danang Beach Resort,"101 Vo Nguyen Giap Street, Khue My Ward, Ngu Hanh Son District ",Da Nang,Da Nang,108.251114,16.041094,https://www.agoda.com/partners/partnersearch.aspx?hid=182167,187.0,2010.0,,2850,9.0,5.0,0,0,0,0,0,0,0,0,0,0,0,0,1,0,0,0,0,1,0,0,0,0,https://www.agoda.com/vi-vn/pullman-danang-beach-resort/hotel/da-nang-vn.html
182174,La Sapinette Hotel,9,Dalat,Lam Dong,108.464069,11.948605,https://www.agoda.com/partners/partnersearch.aspx?hid=182174,83.0,2009.0,2023.0,1162,8.2,4.0,0,0,0,0,0,0,0,0,0,0,0,0,1,0,0,0,0,0,0,0,0,0,https://www.agoda.com/vi-vn/la-sapinette-hotel/hotel/dalat-vn.html
185043,Royal Hotel,36 Quang Trung Street,Vung Tau,Ba Ria Vung Tau,107.071922,10.348415,https://www.agoda.com/partners/partnersearch.aspx?hid=185043,50.0,,,185,7.4,3.0,0,0,0,0,0,0,0,0,0,0,0,0,1,0,0,0,0,0,0,0,0,0,https://www.agoda.com/vi-vn/royal-hotel/hotel/vung-tau-vn.html
185936,Dragon King 1 Hotel,65-67 Bui Thi Xuan,Dalat,Lam Dong,108.439128,11.945315,https://www.agoda.com/partners/partnersearch.aspx?hid=185936,67.0,2004.0,2009.0,1237,7.7,3.0,0,0,0,0,0,0,0,0,0,0,0,0,1,0,0,0,0,0,0,0,0,0,https://www.agoda.com/vi-vn/dragon-king-1-hotel/hotel/dalat-vn.html
185968,TTC Hotel - Phan Thiet,"Doi Duong area, 213 Le Loi street, Hung Long ward, Phan Thiet city, Binh Thuan province, Vietnam ",Phan Thiet,Binh Thuan,108.114738,10.925791,https://www.agoda.com/partners/partnersearch.aspx?hid=185968,180.0,2010.0,,2590,8.6,4.0,0,0,0,0,0,0,0,0,0,0,0,0,1,0,0,0,0,0,0,0,0,0,https://www.agoda.com/vi-vn/ttc-hotel-premium-phan-thiet/hotel/phan-thiet-vn.html
186186,Hanoi Street Hotel,"1 Cam Chi St (Hang Bong) Hoan Kiem District, Hanoi",Hanoi,Ha Noi,105.843921,21.029121,https://www.agoda.com/partners/partnersearch.aspx?hid=186186,27.0,2008.0,2010.0,361,8.7,2.0,0,0,0,0,0,0,0,0,0,0,0,0,1,0,0,0,0,0,0,0,0,0,https://www.agoda.com/vi-vn/hanoi-street-hotel/hotel/hanoi-vn.html
186561,Rembrandt Hotel Nha Trang,2 Tran Quang Khai Street ,Nha Trang,Khanh Hoa,109.197002,12.233672,https://www.agoda.com/partners/partnersearch.aspx?hid=186561,80.0,2010.0,,520,7.7,3.5,0,0,0,0,0,0,0,0,0,0,0,0,1,0,0,0,0,0,0,0,0,0,https://www.agoda.com/vi-vn/rembrandt-hotel-nha-trang/hotel/nha-trang-vn.html
186606,New Pacific Hotel,"9-11 Ky Dong Street, District 3",Ho Chi Minh City,Ho Chi Minh,106.682975,10.783712,https://www.agoda.com/partners/partnersearch.aspx?hid=186606,120.0,2010.0,2014.0,392,6.7,4.0,0,0,0,0,0,0,0,0,0,0,0,0,1,0,0,0,0,0,0,0,0,0,https://www.agoda.com/vi-vn/new-pacific-hotel/hotel/ho-chi-minh-city-vn.html
186695,Camela Hotel and Resort,"No. 515 A Hung Vuong Road, Hong Bang District",Haiphong,Hai Phong,106.643382,20.875751,https://www.agoda.com/partners/partnersearch.aspx?hid=186695,81.0,,,122,6.9,4.0,0,0,0,0,0,0,0,0,0,0,0,0,1,0,0,0,0,0,0,0,0,0,https://www.agoda.com/vi-vn/camela-hotel-and-resort/hotel/haiphong-vn.html
186731,Nam Cuong Hai Duong Hotel,"No.1 Vo Nguyen Giap Boulevard, Tu Minh Ward, Hai Duong",Hai Duong,Hai Duong,106.28853,20.935509,https://www.agoda.com/partners/partnersearch.aspx?hid=186731,181.0,2006.0,2015.0,201,8.0,4.0,0,0,0,0,0,0,0,0,0,0,0,0,1,0,0,0,0,0,0,0,0,0,https://www.agoda.com/vi-vn/nam-cuong-hai-duong-hotel/hotel/hai-duong-vn.html
186778,Flower Garden Hotel,"No 46, Nguyen Truong To Street, Ba Dinh, Ha Noi",Hanoi,Ha Noi,105.843465,21.043271,https://www.agoda.com/partners/partnersearch.aspx?hid=186778,83.0,2008.0,2020.0,124,8.6,4.0,0,0,0,0,0,0,0,0,0,0,0,0,1,0,0,0,0,0,0,0,0,0,https://www.agoda.com/vi-vn/flower-garden-hotel/hotel/hanoi-vn.html
186800,Thanh Bình 2,712 Hai Ba Trung Street,Hoi An,Quang Nam,108.326614,15.880324,https://www.agoda.com/partners/partnersearch.aspx?hid=186800,26.0,2000.0,2022.0,390,7.4,2.0,0,0,0,0,0,0,0,0,0,0,0,0,1,0,0,0,0,0,0,0,0,0,https://www.agoda.com/vi-vn/thanh-binh-ii-hotel/hotel/hoi-an-vn.html
186819,Canary Hue Hotel,37 Nguyễn Công Trứ,Hue,Thua Thien Hue,107.597087,16.471448,https://www.agoda.com/partners/partnersearch.aspx?hid=186819,25.0,,,166,8.0,2.0,0,0,0,0,0,0,0,0,0,0,0,0,1,0,0,0,0,0,0,0,0,0,https://www.agoda.com/vi-vn/canary-hue-hotel/hotel/hue-vn.html
186820,Thanh Van Hotel,78 Tran Hung Dao Street,Hoi An,Quang Nam,108.326719,15.88007,https://www.agoda.com/partners/partnersearch.aspx?hid=186820,24.0,,,995,8.4,2.0,0,0,0,0,0,0,0,0,0,0,0,0,1,0,0,0,0,0,0,0,0,0,https://www.agoda.com/vi-vn/thanh-van-hotel/hotel/hoi-an-vn.html
186841,A25 Hotel - 12 Ngo Si Lien,"12 Ngo Sy Lien, Van Mieu, Dong Da, Ha Noi",Hanoi,Ha Noi,105.838964,21.027889,https://www.agoda.com/partners/partnersearch.aspx?hid=186841,56.0,2010.0,2021.0,238,8.4,3.0,0,0,0,0,0,0,0,0,0,0,0,0,1,0,0,0,0,0,0,0,0,0,https://www.agoda.com/vi-vn/a25-hotel-asean-12-ngo-si-lien/hotel/hanoi-vn.html
186900,Conifer Boutique Hotel,"No 9, Ly Dao Thanh Street, Hoan Kiem District",Hanoi,Ha Noi,105.857155,21.025196,https://www.agoda.com/partners/partnersearch.aspx?hid=186900,35.0,2010.0,2015.0,764,8.5,4.0,0,0,0,0,0,0,0,0,0,0,0,0,1,0,0,0,0,0,0,0,0,0,https://www.agoda.com/vi-vn/conifer-boutique-hotel/hotel/hanoi-vn.html
186964,Ninh Binh Legend Hotel,"No 177 Le Thai To Road, Xuan ThanhUrban Zone, Ninh Khanh Ward, Ninh Binh City, Vietnam",Ninh Bình,Ninh Binh,105.958586,20.274403,https://www.agoda.com/partners/partnersearch.aspx?hid=186964,108.0,2009.0,,345,8.6,5.0,0,0,0,0,0,0,0,0,0,0,0,0,1,0,0,0,0,0,0,0,0,0,https://www.agoda.com/vi-vn/ninh-binh-legend-hotel/hotel/ninh-binh-vn.html
186991,Nha Trang Beach Hotel,4 Tran Quang Khai,Nha Trang,Khanh Hoa,109.196752,12.233563,https://www.agoda.com/partners/partnersearch.aspx?hid=186991,64.0,,,109,6.8,3.0,0,0,0,0,0,0,0,0,0,0,0,0,1,0,0,0,0,0,0,0,0,0,https://www.agoda.com/vi-vn/nha-trang-beach-hotel/hotel/nha-trang-vn.html
187011,Sammy Hotel,157 Thuy Van street,Vung Tau,Ba Ria Vung Tau,107.092667,10.342109,https://www.agoda.com/partners/partnersearch.aspx?hid=187011,119.0,1997.0,2023.0,1521,7.7,4.0,0,0,0,0,0,0,0,0,0,0,0,0,1,0,0,0,0,0,0,0,0,0,https://www.agoda.com/vi-vn/sammy-hotel/hotel/vung-tau-vn.html
194445,Hanoi Fantasea Hotel,78b Hang Non Street,Hanoi,Ha Noi,105.848228,21.032476,https://www.agoda.com/partners/partnersearch.aspx?hid=194445,7.0,2009.0,2014.0,840,7.3,1.0,0,0,0,0,0,0,0,0,0,0,0,1,1,0,0,0,0,0,0,0,0,0,https://www.agoda.com/vi-vn/hanoi-fantasea-hotel/hotel/hanoi-vn.html
198831,Lakeside Palace Hotel,15 Hang Hanh Street,Hanoi,Ha Noi,105.850745,21.031624,https://www.agoda.com/partners/partnersearch.aspx?hid=198831,30.0,2010.0,2011.0,1071,7.6,3.5,0,0,0,0,0,0,0,0,0,0,0,0,1,0,0,0,0,0,0,0,0,0,https://www.agoda.com/vi-vn/lakeside-palace-hotel/hotel/hanoi-vn.html
200952,Hanoi Golden Moon Hotel,"65 Nguyen Huu Huan Street, Hoan Kiem Dist.",Hanoi,Ha Noi,105.85435,21.032476,https://www.agoda.com/partners/partnersearch.aspx?hid=200952,17.0,2014.0,2015.0,1539,9.0,3.0,0,0,0,0,0,0,0,0,0,0,0,0,1,0,0,0,0,0,0,0,0,0,https://www.agoda.com/vi-vn/hanoi-golden-moon-hotel/hotel/hanoi-vn.html
210187,Sheraton Nha Trang Hotel & Spa,26-28 Tran Phu Street,Nha Trang,Khanh Hoa,109.196053,12.246417,https://www.agoda.com/partners/partnersearch.aspx?hid=210187,280.0,2010.0,2019.0,2999,9.0,5.0,0,0,0,0,0,0,0,0,0,0,0,0,1,0,0,0,0,0,0,0,0,0,https://www.agoda.com/vi-vn/sheraton-nha-trang-hotel-spa/hotel/nha-trang-vn.html
216205,Eternity Hanoi Hotel,32 Yet Kieu,Hanoi,Ha Noi,105.843515,21.023149,https://www.agoda.com/partners/partnersearch.aspx?hid=216205,30.0,2015.0,2020.0,1233,7.8,3.5,0,0,0,0,0,0,0,0,0,0,0,0,1,0,0,0,0,0,0,0,0,0,https://www.agoda.com/vi-vn/eternity-hanoi-hotel/hotel/hanoi-vn.html
222984,The White Hotel 1,8A/2D2 Thai Van Lung  Street,Ho Chi Minh City,Ho Chi Minh,106.704698,10.779271,https://www.agoda.com/partners/partnersearch.aspx?hid=222984,60.0,2011.0,2022.0,2828,7.2,3.0,0,0,0,0,0,0,0,0,0,0,0,0,1,0,0,0,0,0,0,0,0,0,https://www.agoda.com/vi-vn/the-white-hotel-1/hotel/ho-chi-minh-city-vn.html
222994,Sen Hotel Saigon,82 Le Lai street,Ho Chi Minh City,Ho Chi Minh,106.693825,10.7701,https://www.agoda.com/partners/partnersearch.aspx?hid=222994,16.0,,2012.0,734,6.6,2.0,0,0,0,0,0,0,0,0,0,0,0,0,1,0,0,0,0,0,0,0,0,0,https://www.agoda.com/vi-vn/sen-hotel-saigon/hotel/ho-chi-minh-city-vn.html
223197,Gia Huy Hotel,26 Nguyen An Ninh,Ho Chi Minh City,,106.696716,10.7718,https://www.agoda.com/partners/partnersearch.aspx?hid=223197,,,,472,8.4,2.0,0,0,0,0,0,0,0,0,0,0,0,0,1,0,0,0,0,0,0,0,0,0,https://www.agoda.com/vi-vn/gia-huy-hotel/hotel/all/ho-chi-minh-city-vn.html
223212,Indochine Palace Hotel,105A Hung Vuong Street ,Hue,Thua Thien Hue,107.59795,16.460318,https://www.agoda.com/partners/partnersearch.aspx?hid=223212,222.0,2009.0,,1402,9.2,5.0,0,0,0,0,0,0,0,0,0,0,0,0,1,0,0,0,0,0,0,0,0,0,https://www.agoda.com/vi-vn/indochine-palace-hotel/hotel/hue-vn.html
223242,HANZ Ami Central Hotel Hanoi,"30 Hàng Cót, Old Quarter, Hàng Mã, Hoàn Kiếm, Hanoi, Vietnam",Hanoi,Ha Noi,105.846953,21.038136,https://www.agoda.com/partners/partnersearch.aspx?hid=223242,25.0,2010.0,2015.0,693,8.0,3.0,0,0,0,0,0,0,0,0,0,0,0,0,1,0,0,0,0,0,0,0,0,0,https://www.agoda.com/vi-vn/ritz-boutique-hotel/hotel/hanoi-vn.html
230119,AEm Hotel Selection,"150 Le Thanh Ton, Dist 1",Ho Chi Minh City,Ho Chi Minh,106.69717,10.772961,https://www.agoda.com/partners/partnersearch.aspx?hid=230119,40.0,,,942,6.8,2.0,0,0,0,0,0,0,0,0,0,0,0,0,1,0,0,0,0,0,0,0,0,0,https://www.agoda.com/vi-vn/a-em-150-le-thanh-ton-hotel/hotel/ho-chi-minh-city-vn.html
230121,Golden Star Hotel - 60 Le Thanh Ton,"60 Le Thanh Ton str, Ben Nghe ward",Ho Chi Minh City,Ho Chi Minh,106.70295,10.778664,https://www.agoda.com/partners/partnersearch.aspx?hid=230121,30.0,2008.0,2015.0,1345,7.2,3.0,0,0,0,0,0,0,0,0,0,0,0,0,1,0,0,0,0,0,0,0,0,0,https://www.agoda.com/vi-vn/golden-star-hotel-60-le-thanh-ton/hotel/ho-chi-minh-city-vn.html
230151,Charner Hotel,"29 Thu Khoa Huan St., Ben Thanh Ward, District 1",Ho Chi Minh City,Ho Chi Minh,106.697188,10.773548,https://www.agoda.com/partners/partnersearch.aspx?hid=230151,22.0,2010.0,2014.0,463,7.6,2.0,0,0,0,0,0,0,0,0,0,0,0,0,1,0,0,0,0,0,0,0,0,0,https://www.agoda.com/vi-vn/charner-hotel/hotel/ho-chi-minh-city-vn.html
230301,Halo Hotel,23 Thủ Khoa Huân,Ho Chi Minh City,Ho Chi Minh,106.697919,10.774075,https://www.agoda.com/partners/partnersearch.aspx?hid=230301,35.0,2010.0,2020.0,1829,7.8,2.5,0,0,0,0,0,0,0,0,0,0,0,0,1,0,0,0,0,0,0,0,0,0,https://www.agoda.com/vi-vn/halo-hotel/hotel/ho-chi-minh-city-vn.html
230302,Hanoi Impressive Hotel,54 - 56 Au Trieu Street,Hanoi,Ha Noi,105.848207,21.0284,https://www.agoda.com/partners/partnersearch.aspx?hid=230302,35.0,2010.0,,513,8.5,3.0,0,0,0,0,0,0,0,0,0,0,0,0,1,0,0,0,0,0,0,0,0,0,https://www.agoda.com/vi-vn/hanoi-impressive-hotel/hotel/hanoi-vn.html
230306,Hồng Hạc hotel,"34A Thu Khoa Huan Street, Ben Thanh Ward",Ho Chi Minh City,Ho Chi Minh,106.696993,10.774238,https://www.agoda.com/partners/partnersearch.aspx?hid=230306,30.0,2010.0,2013.0,645,7.4,2.5,0,0,0,0,0,0,0,0,0,0,0,0,1,0,0,0,0,0,0,0,0,0,https://www.agoda.com/vi-vn/lexington-central-hotel/hotel/ho-chi-minh-city-vn.html
230334,The Coast Hotel,300A Phan Chu Trinh street,Vung Tau,Ba Ria Vung Tau,107.087487,10.329404,https://www.agoda.com/partners/partnersearch.aspx?hid=230334,,,,715,7.1,3.0,0,0,0,0,0,0,0,0,0,0,0,0,1,0,0,0,0,0,0,0,0,0,https://www.agoda.com/vi-vn/the-coast-hotel/hotel/vung-tau-vn.html
230359,Nhat Thanh Hotel,57-59-61 Phan Boi Chau Street,Nha Trang,Khanh Hoa,109.192702,12.253792,https://www.agoda.com/partners/partnersearch.aspx?hid=230359,79.0,,,66,5.9,3.0,0,0,0,0,0,0,0,0,0,0,0,0,1,0,0,0,0,0,0,0,0,0,https://www.agoda.com/vi-vn/nhat-thanh-hotel/hotel/nha-trang-vn.html
230409,Ipeace Hotel - Bui Vien Walking Street,"175/8 Pham Ngu Lao, District 1",Ho Chi Minh City,Ho Chi Minh,106.694203,10.768529,https://www.agoda.com/partners/partnersearch.aspx?hid=230409,22.0,2009.0,2015.0,2264,8.0,2.5,0,0,0,0,0,0,0,0,0,0,0,0,1,0,0,0,0,0,0,0,0,0,https://www.agoda.com/vi-vn/ipeace-hotel/hotel/ho-chi-minh-city-vn.html
230479,Sea Mountain Hotel,108/6 Trần Phú,Vung Tau,Ba Ria Vung Tau,107.062871,10.366778,https://www.agoda.com/partners/partnersearch.aspx?hid=230479,37.0,2009.0,,961,7.4,3.0,0,0,0,0,0,0,0,0,0,0,0,0,1,0,0,0,0,0,0,0,0,0,https://www.agoda.com/vi-vn/sea-mountain-hotel/hotel/vung-tau-vn.html
230533,Hai Chau - Chau Doc Hotel,"63 Suong Nguyet Anh, Ward A,",Chau Doc (An Giang),An Giang,105.117825,10.711573,https://www.agoda.com/partners/partnersearch.aspx?hid=230533,16.0,,,375,7.6,2.0,0,0,0,0,0,0,0,0,0,0,0,0,1,0,0,0,0,0,0,0,0,0,https://www.agoda.com/vi-vn/hai-chau-chau-doc-hotel/hotel/chau-doc-an-giang-vn.html
230575,MAY DE VILLE TRENDY HOTEL & SPA,"24 Han Thuyen Street, Hai Ba Trung District",Hanoi,Ha Noi,105.856426,21.018195,https://www.agoda.com/partners/partnersearch.aspx?hid=230575,81.0,2010.0,2022.0,58,9.1,4.0,0,0,0,0,0,0,0,0,0,0,0,0,1,0,0,0,0,0,0,0,0,0,https://www.agoda.com/vi-vn/may-de-ville-city-centre-hotel/hotel/hanoi-vn.html
230577,Ninh Kieu 2 Hotel,"3 Hoa Binh St., Tan An Ward, Ninh Kieu Dist.",Cần Thơ,Can Tho,105.786495,10.034929,https://www.agoda.com/partners/partnersearch.aspx?hid=230577,108.0,2018.0,2023.0,1035,7.9,4.0,0,0,0,0,0,0,0,0,0,0,0,0,1,0,0,0,0,0,0,0,0,0,https://www.agoda.com/vi-vn/ninh-kieu-2-hotel_9/hotel/can-tho-vn.html
230670,Cocochine - a VIE collection,105 Ho&#224;ng Kế Vi&#234;m,Da Nang,Da Nang,108.245856,16.049389,https://www.agoda.com/partners/partnersearch.aspx?hid=230670,40.0,2008.0,,176,8.2,3.0,0,0,0,0,0,0,0,0,0,0,0,0,1,0,0,0,0,0,0,0,0,0,https://www.agoda.com/vi-vn/hoang-quan-hotel/hotel/da-nang-vn.html
230684,Hanoi Emotion Hotel,"26 Hang Bot Street, Temple of Literature quan Ba Dinh, Dong Da District, Hanoi",Hanoi,Ha Noi,105.834177,21.029232,https://www.agoda.com/partners/partnersearch.aspx?hid=230684,48.0,2010.0,2017.0,316,8.0,3.0,0,0,0,0,0,0,0,0,0,0,0,0,1,0,0,0,0,0,0,0,0,0,https://www.agoda.com/vi-vn/hanoi-emotion-hotel/hotel/hanoi-vn.html
230693,Long Beach Hotel Tuy Hoa,"17 Doc Lap Street, Tuy Hoa",Tuy Hòa (Phú Yên),Phu Yen,109.318778,13.100198,https://www.agoda.com/partners/partnersearch.aspx?hid=230693,57.0,2011.0,2016.0,128,6.7,0.0,0,0,0,0,0,0,0,0,0,0,0,0,1,0,0,0,0,0,0,0,0,0,https://www.agoda.com/vi-vn/long-beach-hotel-tuy-hoa/hotel/tuy-hoa-phu-yen-vn.html
230699,Hanoi Serenity Hotel 2,17 Nguyen Van To Street,Hanoi,Ha Noi,105.845316,21.031325,https://www.agoda.com/partners/partnersearch.aspx?hid=230699,25.0,2010.0,2014.0,1962,7.8,3.0,0,0,0,0,0,0,0,0,0,0,0,0,1,0,0,0,0,0,0,0,0,0,https://www.agoda.com/vi-vn/hanoi-serenity-hotel-2/hotel/hanoi-vn.html
230719,Hai Au Boutique Hotel and Spa,576 Cua Dai Road,Hoi An,Quang Nam,108.336257,15.880091,https://www.agoda.com/partners/partnersearch.aspx?hid=230719,41.0,2004.0,2015.0,963,8.5,3.0,0,0,0,0,0,0,0,0,0,0,0,0,1,0,0,0,0,0,0,0,0,0,https://www.agoda.com/vi-vn/hai-au-boutique-hotel-and-spa/hotel/hoi-an-vn.html
230721,Hanoi Boutique Hotel & Spa,07 Ngo Gach Street,Hanoi,Ha Noi,105.85017,21.036266,https://www.agoda.com/partners/partnersearch.aspx?hid=230721,40.0,2010.0,2023.0,848,9.3,4.0,0,0,0,0,0,0,0,0,0,0,0,0,1,0,0,0,0,0,0,0,0,0,https://www.agoda.com/vi-vn/hanoi-boutique-hotel-spa/hotel/hanoi-vn.html
230741,Eden Hotel Hanoi,"22 Doan Tran Nghiep Street, Hai Ba Trung District",Hanoi,Ha Noi,105.850021,21.011876,https://www.agoda.com/partners/partnersearch.aspx?hid=230741,60.0,2010.0,,179,7.4,4.0,0,0,0,0,0,0,0,0,0,0,0,0,1,0,0,0,0,0,0,0,0,0,https://www.agoda.com/vi-vn/ariva-eden-hanoi-hotel/hotel/hanoi-vn.html
230767,New Moon Hotel,"28 Tran Quy Cap Street, Dong Da District",Hanoi,Ha Noi,105.839957,21.026692,https://www.agoda.com/partners/partnersearch.aspx?hid=230767,24.0,,,18,6.7,2.0,0,0,0,0,0,0,0,0,0,0,0,0,1,0,0,0,0,0,0,0,0,0,https://www.agoda.com/vi-vn/new-moon-hotel/hotel/hanoi-vn.html
234434,Grand Hotel Vung Tau,"02 Nguyen Du St, Ward 1 ",Vung Tau,Ba Ria Vung Tau,107.075189,10.343592,https://www.agoda.com/partners/partnersearch.aspx?hid=234434,35.0,,2010.0,540,8.2,4.0,0,0,0,0,0,0,0,0,0,0,0,0,1,0,0,0,0,0,0,0,0,0,https://www.agoda.com/vi-vn/grand-hotel-vung-tau/hotel/vung-tau-vn.html
236996,Bon Ami Hotel - Thiên Xuân Hotel,"108-110 Le Thanh Ton St, Ben Thanh, District 1, HCMC",Ho Chi Minh City,Ho Chi Minh,106.698624,10.77401,https://www.agoda.com/partners/partnersearch.aspx?hid=236996,67.0,2005.0,2023.0,1996,8.1,3.0,0,0,0,0,0,0,0,0,0,0,0,0,1,0,0,0,0,0,0,0,0,0,https://www.agoda.com/vi-vn/thien-xuan-hotel/hotel/ho-chi-minh-city-vn.html
237100,Crowne Plaza Danang,8 Vo Nguyen GiapStreet,Da Nang,Da Nang,108.257645,16.027388,https://www.agoda.com/partners/partnersearch.aspx?hid=237100,535.0,2010.0,2010.0,271,7.8,4.5,0,0,0,0,0,0,0,0,0,0,0,0,1,0,0,0,0,1,0,0,0,0,https://www.agoda.com/vi-vn/crowne-plaza-danang/hotel/da-nang-vn.html
237128,The Western Hill Hotel,135 - 145 Phan Dinh Phung,Dalat,Lam Dong,108.434469,11.945309,https://www.agoda.com/partners/partnersearch.aspx?hid=237128,104.0,2010.0,2024.0,1610,7.7,4.0,0,0,0,0,0,0,0,0,0,0,0,0,1,0,0,0,0,0,0,0,0,0,https://www.agoda.com/vi-vn/river-prince-hotel/hotel/dalat-vn.html
237265,Hanoi Elite Hotel,10/50 Dao Duy Tu,Hanoi,Ha Noi,105.852402,21.035325,https://www.agoda.com/partners/partnersearch.aspx?hid=237265,20.0,,,485,9.0,2.5,0,0,0,0,0,0,0,0,0,0,0,0,1,0,0,0,0,0,0,0,0,0,https://www.agoda.com/vi-vn/hanoi-elite-hotel/hotel/hanoi-vn.html
237273,Mondial Hotel Hue,17 Nguyen Hue Street,Hue,Thua Thien Hue,107.583028,16.457771,https://www.agoda.com/partners/partnersearch.aspx?hid=237273,99.0,2010.0,2022.0,1128,8.5,4.0,0,0,0,0,0,0,0,0,0,0,0,0,1,0,0,0,0,0,0,0,0,0,https://www.agoda.com/vi-vn/mondial-hotel-hue/hotel/hue-vn.html
237296,Park Hotel Dalat,"19 Le Dai Hanh Str , Ward 3, Dalat City",Dalat,Lam Dong,108.438026,11.938497,https://www.agoda.com/partners/partnersearch.aspx?hid=237296,98.0,2010.0,2020.0,1747,7.9,3.5,0,0,0,0,0,0,0,0,0,0,0,0,1,0,0,0,0,0,0,0,0,0,https://www.agoda.com/vi-vn/dalat-plaza-hotel/hotel/dalat-vn.html
237299,Dalat Cadasa Resort,16 Tran Hung Dao,Dalat,Lam Dong,108.453083,11.937059,https://www.agoda.com/partners/partnersearch.aspx?hid=237299,54.0,1934.0,2010.0,376,7.4,3.5,0,0,0,0,0,0,0,0,0,0,0,0,1,0,0,0,0,1,0,0,0,0,https://www.agoda.com/vi-vn/dalat-cadasa-resort/hotel/dalat-vn.html
237308,Ky Hoa Dalat Hotel,211-213-215-217 Phu Dong Thien Vuong Str,Dalat,Lam Dong,108.443725,11.967657,https://www.agoda.com/partners/partnersearch.aspx?hid=237308,65.0,2010.0,,291,7.6,3.5,0,0,0,0,0,0,0,0,0,0,0,0,1,0,0,0,0,0,0,0,0,0,https://www.agoda.com/vi-vn/ky-hoa-dalat-hotel/hotel/dalat-vn.html
237314,Nhat Ha 1 Hotel,"252B-C Le Thanh Ton Str, Ben Thanh Ward, Dist. 1 ",Ho Chi Minh City,Ho Chi Minh,106.696086,10.772308,https://www.agoda.com/partners/partnersearch.aspx?hid=237314,55.0,,2015.0,1820,8.6,3.5,0,0,0,0,0,0,0,0,0,0,0,0,1,0,0,0,0,0,0,0,0,0,https://www.agoda.com/vi-vn/nhat-ha-1-hotel/hotel/ho-chi-minh-city-vn.html
237315,Queen Hotel Ninh Binh,20 Hoang Hoa Tham,Ninh Bình,Ninh Binh,105.978541,20.251678,https://www.agoda.com/partners/partnersearch.aspx?hid=237315,40.0,2010.0,2022.0,462,8.2,0.0,0,0,0,0,0,0,0,0,0,0,0,0,1,0,0,0,0,0,0,0,0,0,https://www.agoda.com/vi-vn/queen-hotel-ninh-binh/hotel/ninh-binh-vn.html
237381,Cua Dai Beach,Au Co,Hoi An,Quang Nam,108.386457,15.882113,https://www.agoda.com/partners/partnersearch.aspx?hid=237381,,,,25,4.9,3.0,0,0,0,0,0,0,0,0,0,0,0,0,1,0,0,0,0,0,0,0,0,0,https://www.agoda.com/vi-vn/cua-dai-beach-hotel/hotel/hoi-an-vn.html
237406,Barcelona Hotel Nha Trang,34E Nguyen Thiet Thuat Street,Nha Trang,Khanh Hoa,109.193829,12.236511,https://www.agoda.com/partners/partnersearch.aspx?hid=237406,50.0,2009.0,,64,7.5,3.0,0,0,0,0,0,0,0,0,0,0,0,0,1,0,0,0,0,0,0,0,0,0,https://www.agoda.com/vi-vn/barcelona-hotel-nha-trang/hotel/nha-trang-vn.html
237429,Rang Dong Hotel,"83 Cach Mang Thang Tam Street, District 1",Ho Chi Minh City,Ho Chi Minh,106.692838,10.771711,https://www.agoda.com/partners/partnersearch.aspx?hid=237429,94.0,1998.0,2016.0,383,8.1,3.0,0,0,0,0,0,0,0,0,0,0,0,0,1,0,0,0,0,0,0,0,0,0,https://www.agoda.com/vi-vn/rang-dong-hotel/hotel/ho-chi-minh-city-vn.html
237458,Lam Son Hotel,"7 le ngoc han str, ward 1,",Vung Tau,Ba Ria Vung Tau,107.072088,10.35166,https://www.agoda.com/partners/partnersearch.aspx?hid=237458,60.0,2007.0,2010.0,347,7.6,2.0,0,0,0,0,0,0,0,0,0,0,0,0,1,0,0,0,0,0,0,0,0,0,https://www.agoda.com/vi-vn/lam-son-hotel/hotel/vung-tau-vn.html
237472,Valentine Hotel,7 Lane 64 Nguyen Cong Tru Str,Hue,Thua Thien Hue,107.598361,16.469905,https://www.agoda.com/partners/partnersearch.aspx?hid=237472,30.0,2009.0,2013.0,423,8.1,2.0,0,0,0,0,0,0,0,0,0,0,0,0,1,0,0,0,0,0,0,0,0,0,https://www.agoda.com/vi-vn/valentine-hotel/hotel/hue-vn.html
237497,Universe Hotel,"549 Tran Hung Dao street, District 01",Ho Chi Minh City,Ho Chi Minh,106.686371,10.757188,https://www.agoda.com/partners/partnersearch.aspx?hid=237497,64.0,,2013.0,72,6.5,3.0,0,0,0,0,0,0,0,0,0,0,0,0,1,0,0,0,0,0,0,0,0,0,https://www.agoda.com/vi-vn/universe-hotel/hotel/ho-chi-minh-city-vn.html
237603,Sheraton Hanoi West,"36, Le Duc Tho street, My Dinh 2 ward, Nam Tu Liem district",Hanoi,Ha Noi,105.767647,21.027405,https://www.agoda.com/partners/partnersearch.aspx?hid=237603,131.0,2011.0,,18,7.7,5.0,0,0,0,0,0,0,0,0,0,0,0,0,1,0,0,0,0,0,0,1,0,0,https://www.agoda.com/vi-vn/crowne-plaza-west-hanoi-residences/hotel/hanoi-vn.html
237709,Ace Hotel Ben Thanh,"100 Ly Tu Trong Street, Ben Thanh Ward, District 1, Ho Chi Minh City",Ho Chi Minh City,Ho Chi Minh,106.697197,10.774106,https://www.agoda.com/partners/partnersearch.aspx?hid=237709,32.0,,,2421,7.6,3.0,0,0,0,0,0,0,0,0,0,0,0,0,1,0,0,0,0,0,0,0,0,0,https://www.agoda.com/vi-vn/ace-hotel-ben-thanh/hotel/ho-chi-minh-city-vn.html
237735,Lien An Saigon Hotel,"181 Le Thanh Ton, Ben Thanh Ward, District 1, Ho Chi Minh City",Ho Chi Minh City,Ho Chi Minh,106.698811,10.773472,https://www.agoda.com/partners/partnersearch.aspx?hid=237735,30.0,2009.0,2011.0,213,7.7,2.0,0,0,0,0,0,0,0,0,0,0,0,0,1,0,0,0,0,0,0,0,0,0,https://www.agoda.com/vi-vn/lien-an-saigon-hotel/hotel/ho-chi-minh-city-vn.html
237747,Asian Ruby Hotel & Apartment,122F-122F1 Bui Thi Xuan,Ho Chi Minh City,Ho Chi Minh,106.688452,10.769942,https://www.agoda.com/partners/partnersearch.aspx?hid=237747,55.0,,2014.0,444,7.8,3.0,0,0,0,0,0,0,0,0,0,0,0,0,1,0,0,0,0,0,0,0,0,0,https://www.agoda.com/vi-vn/asian-ruby-select-hotel/hotel/ho-chi-minh-city-vn.html
237755,May De Ville Lakeside Hotel,"43 Gia Ngu, Hoan Kiem District ",Hanoi,Ha Noi,105.852107,21.032994,https://www.agoda.com/partners/partnersearch.aspx?hid=237755,112.0,2010.0,2023.0,868,9.3,5.0,0,0,0,0,0,0,0,0,0,0,0,0,1,0,0,0,0,0,0,0,0,0,https://www.agoda.com/vi-vn/may-de-ville-old-quarter-hotel/hotel/hanoi-vn.html
237764,M&H Hotel,"26/12 Truong Dinh street, Ben Thanh Ward",Ho Chi Minh City,Ho Chi Minh,106.696486,10.771836,https://www.agoda.com/partners/partnersearch.aspx?hid=237764,15.0,2010.0,2017.0,411,7.5,2.0,0,0,0,0,0,0,0,0,0,0,0,0,1,0,0,0,0,0,0,0,0,0,https://www.agoda.com/vi-vn/m-h-hotel_2/hotel/ho-chi-minh-city-vn.html
237790,Le Foyer Hotel Hanoi,"39 Gia Ngu Street, Hoan Kiem District",Hanoi,Ha Noi,105.852335,21.032992,https://www.agoda.com/partners/partnersearch.aspx?hid=237790,30.0,2010.0,2022.0,451,8.2,3.0,0,0,0,0,0,0,0,0,0,0,0,0,1,0,0,0,0,0,0,0,0,0,https://www.agoda.com/vi-vn/le-foyer-hotel-hanoi/hotel/hanoi-vn.html
237810,Hanoi E Central Hotel,"18 Lo Su Street, Hoan Kiem District",Hanoi,Ha Noi,105.855246,21.031635,https://www.agoda.com/partners/partnersearch.aspx?hid=237810,21.0,2010.0,2016.0,1157,9.1,4.0,0,0,0,0,0,0,0,0,0,0,0,0,1,0,0,0,0,0,0,0,0,0,https://www.agoda.com/vi-vn/hanoi-e-central-hotel/hotel/hanoi-vn.html
237812,Ruby Saigon Hotel,269 Lê Thánh Tôn,Ho Chi Minh City,Ho Chi Minh,106.695684,10.771847,https://www.agoda.com/partners/partnersearch.aspx?hid=237812,,2010.0,2022.0,780,7.7,3.0,0,0,0,0,0,0,0,0,0,0,0,0,1,0,0,0,0,0,0,0,0,0,https://www.agoda.com/vi-vn/saigon-sparkle-hotel/hotel/ho-chi-minh-city-vn.html
237923,A25 Hotel - 13 Bui Thi Xuan,"13 Bui Thi Xuan, Ben Thanh, District 1, Ho Chi Minh ",Ho Chi Minh City,Ho Chi Minh,106.690771,10.772003,https://www.agoda.com/partners/partnersearch.aspx?hid=237923,35.0,,,340,6.8,2.0,0,0,0,0,0,0,0,0,0,0,0,0,1,0,0,0,0,0,0,0,0,0,https://www.agoda.com/vi-vn/a25-hotel-13-bui-thi-xuan/hotel/ho-chi-minh-city-vn.html
237925,Centara Hotel,"270 Ly Tu Trong Street, Ben Thanh Ward, District 1",Ho Chi Minh City,Ho Chi Minh,106.693795,10.771798,https://www.agoda.com/partners/partnersearch.aspx?hid=237925,25.0,2008.0,2023.0,995,7.2,2.0,0,0,0,0,0,0,0,0,0,0,0,0,1,0,0,0,0,0,0,0,0,0,https://www.agoda.com/vi-vn/oyo-112-holiday-hotel/hotel/ho-chi-minh-city-vn.html
238009,Hanoi Central Park Hotel,58 Hang Be Street,Hanoi,Ha Noi,105.853626,21.032346,https://www.agoda.com/partners/partnersearch.aspx?hid=238009,20.0,,2013.0,362,7.9,3.0,0,0,0,0,0,0,0,0,0,0,0,0,1,0,0,0,0,0,0,0,0,0,https://www.agoda.com/vi-vn/hanoi-central-park-hotel/hotel/hanoi-vn.html
238037,VINH TRUNG PLAZA HOTEL,255-257 Hung Vuong ,Da Nang,Da Nang,108.213412,16.066609,https://www.agoda.com/partners/partnersearch.aspx?hid=238037,101.0,2010.0,,371,6.9,4.0,0,0,0,0,0,0,0,0,0,0,0,0,1,0,0,0,0,0,0,0,0,0,https://www.agoda.com/vi-vn/vinh-trung-plaza-apartments-and-hotel/hotel/da-nang-vn.html
239406,Sunny A Hotel,17/34 Nguyen Tri Phuong Street ,Hue,Thua Thien Hue,107.592824,16.46451,https://www.agoda.com/partners/partnersearch.aspx?hid=239406,30.0,2000.0,2022.0,959,8.8,2.0,0,0,0,0,0,0,0,0,0,0,0,0,1,0,0,0,0,0,0,0,0,0,https://www.agoda.com/vi-vn/sunny-a-hotel/hotel/hue-vn.html
239407,Sunny B Hotel,4/34 Nguyen Tri Phuong Street,Hue,Thua Thien Hue,107.592673,16.464732,https://www.agoda.com/partners/partnersearch.aspx?hid=239407,24.0,2006.0,2010.0,152,8.8,2.0,0,0,0,0,0,0,0,0,0,0,0,0,1,0,0,0,0,0,0,0,0,0,https://www.agoda.com/vi-vn/sunny-b-hotel/hotel/hue-vn.html
239408,Sunny C Hotel,7/25 Hai Ba Trung Str,Hue,Thua Thien Hue,107.5899,16.460865,https://www.agoda.com/partners/partnersearch.aspx?hid=239408,20.0,2008.0,2012.0,106,8.4,2.0,0,0,0,0,0,0,0,0,0,0,0,0,1,0,0,0,0,0,0,0,0,0,https://www.agoda.com/vi-vn/sunny-c-hotel/hotel/hue-vn.html
239422,Hanoi House Hostel & Travel,"85 Ma May Street, Hoan Kiem District",Hanoi,Ha Noi,105.853524,21.034524,https://www.agoda.com/partners/partnersearch.aspx?hid=239422,10.0,,,685,8.8,2.0,0,0,0,0,0,0,0,0,0,0,0,0,1,0,0,0,0,0,0,0,0,0,https://www.agoda.com/vi-vn/hanoi-guest-house/hotel/hanoi-vn.html
239423,Royal Holiday Hanoi Hotel,19 Hàng Hành,Hanoi,Ha Noi,105.850514,21.031495,https://www.agoda.com/partners/partnersearch.aspx?hid=239423,15.0,,,373,8.9,3.0,0,0,0,0,0,0,0,0,0,0,0,0,1,0,0,0,0,0,0,0,0,0,https://www.agoda.com/vi-vn/royal-holiday-hanoi-hotel/hotel/hanoi-vn.html
239449,DMZ Hotel,"21 Doi Cung Street, Hue city",Hue,Thua Thien Hue,107.593274,16.469001,https://www.agoda.com/partners/partnersearch.aspx?hid=239449,42.0,2010.0,2012.0,226,7.4,2.0,0,0,0,0,0,0,0,0,0,0,0,0,1,0,0,0,0,0,0,0,0,0,https://www.agoda.com/vi-vn/dmz-hotel/hotel/hue-vn.html
239466,Hanoi Sunshine Hotel,18 Hang Hom ,Hanoi,Ha Noi,105.84869,21.031898,https://www.agoda.com/partners/partnersearch.aspx?hid=239466,22.0,2009.0,2020.0,599,8.6,3.0,0,0,0,0,0,0,0,0,0,0,0,0,1,0,0,0,0,0,0,0,0,0,https://www.agoda.com/vi-vn/hanoi-chic-hotel/hotel/hanoi-vn.html
239467,Anh Nguyet Hotel Da Nang,"8 Phan Dinh Phung, Hai Chau",Da Nang,Da Nang,108.223684,16.070367,https://www.agoda.com/partners/partnersearch.aspx?hid=239467,20.0,2009.0,2019.0,178,8.5,0.0,0,0,0,0,0,0,0,0,0,0,0,0,1,0,0,0,0,0,0,0,0,0,https://www.agoda.com/vi-vn/anh-nguyet-hotel/hotel/da-nang-vn.html
239482,TTC Hotel - Michelia,"04 Pasteur Street, Xuong Huan Ward",Nha Trang,Khanh Hoa,109.195518,12.253016,https://www.agoda.com/partners/partnersearch.aspx?hid=239482,214.0,2010.0,,1579,8.7,5.0,0,0,0,0,0,0,0,0,0,0,0,0,1,0,0,0,0,0,0,0,0,0,https://www.agoda.com/vi-vn/ttc-hotel-premium-michelia/hotel/nha-trang-vn.html
239497,A25 Hotel - 45 Phan Chu Trinh,"45 Phan Chu Trinh, Phan Chu Trinh, Hoan Kiem, Ha Noi",Hanoi,Ha Noi,105.855754,21.019515,https://www.agoda.com/partners/partnersearch.aspx?hid=239497,25.0,2010.0,2021.0,160,7.6,2.0,0,0,0,0,0,0,0,0,0,0,0,0,1,0,0,0,0,0,0,0,0,0,https://www.agoda.com/vi-vn/a25-hotel-phan-chu-trinh/hotel/hanoi-vn.html
239502,Tan Hoang Long Hotel,"84 Mac Thi Buoi St, Ben Nghe Ward",Ho Chi Minh City,Ho Chi Minh,106.704068,10.774753,https://www.agoda.com/partners/partnersearch.aspx?hid=239502,28.0,2015.0,,1232,8.5,0.0,0,0,0,0,0,0,0,0,1,0,0,0,1,0,0,0,0,0,0,0,0,0,https://www.agoda.com/vi-vn/tan-hoang-long-hotel/hotel/ho-chi-minh-city-vn.html
239524,Silk Central Hotel & Travel,"15 Hang Can Street, Hang Dao Ward, Hoan Kiem District",Hanoi,Ha Noi,105.849648,21.035006,https://www.agoda.com/partners/partnersearch.aspx?hid=239524,20.0,2010.0,,2414,8.7,3.0,0,0,0,0,0,0,0,0,0,0,0,0,1,0,0,0,0,0,0,0,0,0,https://www.agoda.com/vi-vn/hanoi-golden-moment-hotel/hotel/hanoi-vn.html
239593,Minh Khang Hotel,155 Võ Văn Tần,Ho Chi Minh City,Ho Chi Minh,106.688812,10.774938,https://www.agoda.com/partners/partnersearch.aspx?hid=239593,46.0,,2014.0,856,8.2,2.5,0,0,0,0,0,0,0,0,0,0,0,0,1,0,0,0,0,0,0,0,0,0,https://www.agoda.com/vi-vn/minh-khang-hotel/hotel/ho-chi-minh-city-vn.html
239604,Stargazer Hotel,77 Đ. Trần Phú,Da Nang,Da Nang,108.224226,16.07095,https://www.agoda.com/partners/partnersearch.aspx?hid=239604,12.0,,2010.0,86,7.2,2.0,0,0,0,0,0,0,0,0,0,0,0,0,1,0,0,0,0,0,0,0,0,0,https://www.agoda.com/vi-vn/stargazer-hotel/hotel/da-nang-vn.html
239635,Diamond Nostalgia Hotel & Spa,"35-37 Ma May Street, Hang Buom Ward, Hoan Kiem Dist",Hanoi,Ha Noi,105.85339,21.035609,https://www.agoda.com/partners/partnersearch.aspx?hid=239635,38.0,2006.0,2014.0,784,7.6,3.0,0,0,0,0,0,0,0,0,0,0,0,0,1,0,0,0,0,0,0,0,0,0,https://www.agoda.com/vi-vn/maison-d-hanoi-boutique-hotel/hotel/hanoi-vn.html
239654,Canh Dieu Mountain Hotel,"74 Nguyen Van Cu, Van Xuan, Thanh Binh Ward",Ninh Bình,Ninh Binh,105.980407,20.251946,https://www.agoda.com/partners/partnersearch.aspx?hid=239654,26.0,2011.0,2011.0,296,7.7,2.0,0,0,0,0,0,0,0,0,0,0,0,0,1,0,0,0,0,0,0,0,0,0,https://www.agoda.com/vi-vn/canh-dieu-mountain-hotel/hotel/ninh-binh-vn.html
239659,Anise Sapa Hotel,"Stone stairway Victoria , Xuan Vien Street",Sapa,Lao Cai,103.842449,22.336452,https://www.agoda.com/partners/partnersearch.aspx?hid=239659,18.0,2009.0,2017.0,139,7.6,3.0,0,0,0,0,0,0,0,0,0,0,0,0,1,0,0,0,0,0,0,0,0,0,https://www.agoda.com/vi-vn/anise-sapa-hotel/hotel/sapa-vn.html
239766,Duy Tan 2 Hotel,46 Tran Quang Khai Street,Hue,Thua Thien Hue,107.595506,16.464979,https://www.agoda.com/partners/partnersearch.aspx?hid=239766,62.0,2010.0,2010.0,28,7.3,3.0,0,0,0,0,0,0,0,0,0,0,0,0,1,0,0,0,0,0,0,0,0,0,https://www.agoda.com/vi-vn/duy-tan-2-hotel/hotel/hue-vn.html
239775,Alba Spa Hotel,29 Tran Quang Khai Street,Hue,Thua Thien Hue,107.595455,16.464936,https://www.agoda.com/partners/partnersearch.aspx?hid=239775,58.0,2006.0,2015.0,1289,8.9,4.0,0,0,0,0,0,0,0,0,0,0,0,0,1,0,0,0,0,0,0,0,0,0,https://www.agoda.com/vi-vn/alba-spa-hotel/hotel/hue-vn.html
239776,Alba Hotel,12 Nguyen Van Cu St.,Hue,Thua Thien Hue,107.590262,16.461677,https://www.agoda.com/partners/partnersearch.aspx?hid=239776,32.0,2008.0,2016.0,605,8.5,3.0,0,0,0,0,0,0,0,0,0,0,0,0,1,0,0,0,0,0,0,0,0,0,https://www.agoda.com/vi-vn/alba-hotel/hotel/hue-vn.html
239828,Cao Nguyen Hotel,65 Phan Chu Trinh Street,Buon Ma Thuot,,108.045677,12.684272,https://www.agoda.com/partners/partnersearch.aspx?hid=239828,30.0,,,27,6.5,2.0,0,0,0,0,0,0,0,0,0,0,0,0,1,0,0,0,0,0,0,0,0,0,https://www.agoda.com/vi-vn/cao-nguyen-hotel/hotel/buon-ma-thuot-vn.html
240057,Amigo Hotel,66/3 Le Loi Street,Hue,Thua Thien Hue,107.594261,16.469938,https://www.agoda.com/partners/partnersearch.aspx?hid=240057,16.0,2008.0,2020.0,320,8.4,1.0,0,0,0,0,0,0,0,0,0,0,0,0,1,0,0,0,0,0,0,0,0,0,https://www.agoda.com/vi-vn/amigo-hotel/hotel/hue-vn.html
240070,La Beaute De Hanoi Hotel,"15 Trung Yen Lane, Dinh Liet",Hanoi,Ha Noi,105.85247,21.033468,https://www.agoda.com/partners/partnersearch.aspx?hid=240070,18.0,2010.0,2014.0,1063,8.7,3.0,0,0,0,0,0,0,0,0,0,0,0,0,1,0,0,0,0,0,0,0,0,0,https://www.agoda.com/vi-vn/la-beaute-de-hanoi-hotel/hotel/hanoi-vn.html
240079,Bamboo Green Hotel,"No 177 Tran Phu St., Hai Chau Dist.",Da Nang,Da Nang,108.223843,16.066733,https://www.agoda.com/partners/partnersearch.aspx?hid=240079,70.0,2010.0,,505,6.9,3.0,0,0,0,0,0,0,0,0,0,0,0,0,1,0,0,0,0,0,0,0,0,0,https://www.agoda.com/vi-vn/bamboo-green-hotel/hotel/da-nang-vn.html
